transID,payCardID,payCardBank,payCardName,payCardSex,payCardBirthDate,corridorID,corridorName,direction,tapInStops,tapInStopsName,tapInStopsLat,tapInStopsLon,stopStartSeq,tapInTime,tapOutStops,tapOutStopsName,tapOutStopsLat,tapOutStopsLon,stopEndSeq,tapOutTime,payAmount,ageClasification,Date,Day,tapInHour
EIIW227B8L34VB,1.80063E+14,emoney,Bajragin Usada,M,2008,5,Matraman Baru - Ancol,1,P00142,Pal Putih,-6.184631,106.84402,7,4/3/2023 5:21,P00253,Tegalan,-6.203101,106.85715,12,4/3/2023 6:00,3500,Teenager,4/3/2023,Monday,5
LGXO740D2N47GZ,4885331907664776,dki,Gandi Widodo,F,1997,6C,Stasiun Tebet - Karet via Patra Kuningan,0,B01963P,Kemenkes 2,-6.2287,106.83302,13,4/3/2023 5:42,B03307P,Sampoerna Strategic,-6.217152,106.81892,21,4/3/2023 6:40,3500,Adult,4/3/2023,Monday,5
DJWR385V2U57TO,4996225095064169,dki,Emong Wastuti,F,1992,R1A,Pantai Maju - Kota,0,B00499P,Gg. Kunir II,-6.133132,106.81435,38,4/3/2023 5:59,B04962P,Simpang Kunir Kemukus,-6.133731,106.81475,39,4/3/2023 6:50,3500,Adult,4/3/2023,Monday,5
JTUZ800U7C86EH,6.39099E+11,flazz,Surya Wacana,F,1978,11D,Pulo Gebang - Pulo Gadung 2 via PIK,0,B05587P,Taman Elok 1,-6.195743,106.93526,23,4/3/2023 5:44,B03090P,Raya Penggilingan,-6.183068,106.93194,29,4/3/2023 6:28,3500,Adult,4/3/2023,Monday,5
VMLO535V7F95NJ,5.70928E+11,flazz,Embuh Mardhiyah,M,1982,12,Tanjung Priok - Pluit,0,P00239,Sunter Boulevard Barat,-6.14965,106.889,5,4/3/2023 6:17,P00098,Kali Besar Barat,-6.135355,106.81143,15,4/3/2023 6:57,3500,Adult,4/3/2023,Monday,6
DDES630K2F80KC,2251412124634980,dki,Tirta Siregar,F,1993,1T,Cibubur - Balai Kota,0,B00127P,Benhil 3,-6.21601,106.81632,3,4/3/2023 5:08,B00694P,Grand Sahid,-6.210975,106.82059,6,4/3/2023 5:52,20000,Adult,4/3/2023,Monday,5
XTKE052E5E87LN,3587341902618993,dki,Darmanto Rajasa,F,1991,JAK.03,Lebak Bulus - Andara,1,B03416P,SDN Pondok Labu 11,-6.313269,106.80221,2,4/3/2023 6:44,B00899P,Jln. Baros,-6.311046,106.784,12,4/3/2023 7:11,0,Adult,4/3/2023,Monday,6
OIHS248V7S72EB,6510013988638519,dki,"Cagak Maheswara, S.Sos",F,1992,B14,Bekasi Barat - Kuningan,1,B00795P,Imperium,-6.210363,106.83059,1,4/3/2023 6:01,B01853P,Kayuringin 2,-6.245948,106.99247,16,4/3/2023 6:51,20000,Adult,4/3/2023,Monday,6
ERXO372B2H63RB,3580401035990896,dki,"T. Dadap Pradana, M.Ak",M,2004,1Q,Rempoa - Blok M,0,B05781P,TPU Bungur,-6.247208,106.77889,15,4/3/2023 5:57,B06578P,Blok M Jalur 3,-6.243426,106.80188,24,4/3/2023 6:51,3500,Teenager,4/3/2023,Monday,5
CLWK627W2M22WO,5541851157087967,dki,"Oskar Widiastuti, S.Farm",F,1997,5M,Kampung Melayu - Tanah Abang via Cikini,1,B05433P,Pegangsaan Timur,-6.199263,106.84205,17,4/3/2023 6:32,B02387P,Matraman 4,-6.199782,106.8545,23,4/3/2023 7:23,3500,Adult,4/3/2023,Monday,6
IIEK980X1O23NZ,3.47204E+14,emoney,R.M. Labuh Laksmiwati,F,1984,M7B,BKN - Blok M,1,P00254,Tendean,-6.240213,106.83102,12,4/3/2023 6:22,P00129,Mampang Prapatan,-6.242699,106.82572,14,4/3/2023 6:50,3500,Adult,4/3/2023,Monday,6
OPLW560U3S06UG,3536759468239783,dki,Shakila Maryadi,F,1988,9A,PGC 2 - Grogol 2,1,P00281,Slipi Petamburan Arah Selatan,-6.201948,106.79998,4,4/3/2023 6:15,P00216,Semanggi,-6.22111,106.81354,6,4/3/2023 7:08,3500,Adult,4/3/2023,Monday,6
XESX233R4U46DN,6575130739600630,dki,Danuja Usada,F,2002,4,Pulo Gadung 2 - Tosari,1,P00159,Pasar Rumput,-6.207125,106.84112,2,4/3/2023 6:12,P00135,Matraman 2,-6.19891,106.8545,4,4/3/2023 7:07,3500,Teenager,4/3/2023,Monday,6
LZFD368Q3E81HJ,4.05684E+12,online,Nadine Utami,M,1975,JAK.46,Pasar Minggu - Jagakarsa,1,B00608P,Gelanggang Remaja Pasar Minggu,-6.284615,106.83787,5,4/3/2023 5:38,B01062P,Jln. Gabus Raya,-6.301222,106.83623,17,4/3/2023 6:09,0,Elderly,4/3/2023,Monday,5
KLUN542I2F21PI,4532407180860336,dki,H. Lutfan Nurdiyanti,M,2011,S22,Ciputat - Kampung Rambutan,0,B05291P,SMK Darussalam,-6.319946,106.74598,1,4/3/2023 6:43,B03032P,Pusdiklat Kemenag 1,-6.312075,106.75228,3,4/3/2023 7:07,3500,Teenager,4/3/2023,Monday,6
XDMP644Z5Y29DB,4556326832434362836,brizzi,Sari Nababan,F,2004,13,Ciledug - Tendean,1,P00096,JORR,-6.236104,106.75488,10,4/3/2023 6:49,P00001,Adam Malik,-6.236466,106.74786,11,4/3/2023 7:47,3500,Teenager,4/3/2023,Monday,6
CUPO258C0D42PY,4.96928E+12,online,"Hj. Ophelia Haryanti, S.Sos",M,2002,9E,Kebayoran Lama - Jelambar,1,B00058P,Apartemen Simprug Teras,-6.232197,106.78874,19,4/3/2023 5:41,P00155,Pasar Kebayoran Lama,-6.238413,106.78323,20,4/3/2023 6:35,3500,Teenager,4/3/2023,Monday,5
SBPQ144H4S45RA,5.02035E+11,flazz,"Adikara Kurniawan, S.Sos",M,2003,M9,Pinang Ranti - Pluit,1,P00093,Jembatan Tiga Arah Utara,-6.133383,106.79267,2,4/3/2023 6:24,P00145,Pancoran Tugu Arah Barat,-6.2433,106.84388,16,4/3/2023 7:07,3500,Teenager,4/3/2023,Monday,6
ZYRL615G4C05RD,5430018591726410,dki,Karna Waskita,M,1981,JAK.88,Terminal Tanjung Priok - Ancol Barat,0,B00722P,Gunung Sahari Mangga Dua Timur,-6.137032,106.83254,20,4/3/2023 6:43,B05989P,Jln. Ancol Barat 6,-6.12481,106.81983,36,4/3/2023 7:30,0,Adult,4/3/2023,Monday,6
MEFW094B7A84RS,3.78872E+14,emoney,Aslijan Irawan,F,2009,T11,Poris Plawad - Bundaran Senayan,1,P00206,RS Harapan Kita Arah Utara,-6.184489,106.79674,6,4/3/2023 5:13,B05720P,Term. Poris Plawad,-6.172859,106.66501,24,4/3/2023 6:08,3500,Teenager,4/3/2023,Monday,5
ZJVI960B9I42DA,3.43852E+14,emoney,Garang Utama,F,1997,JAK.16,Cililitan - Condet,0,B02144P,Lippo Mall Kramat Jati,-6.270835,106.86741,4,4/3/2023 5:08,B01393P,Jln. Mesjid Al Mabruk,-6.28435,106.85293,20,4/3/2023 5:30,0,Adult,4/3/2023,Monday,5
RJPK085I1K65HR,6.76293E+11,flazz,Fathonah Saefullah,M,1983,6V,Ragunan - Gelora Bung Karno,0,P00259,Tirtayasa,-6.239207,106.80777,12,4/3/2023 6:44,P00133,Masjid Agung,-6.236483,106.79845,13,4/3/2023 7:11,3500,Adult,4/3/2023,Monday,6
TFIO518N2X54UT,2.13191E+14,emoney,Darman Purwanti,M,1999,11Q,Kampung Melayu - Pulo Gebang via BKT,0,B02335P,Masjid Jami At Taqwa 2,-6.229704,106.8962,18,4/3/2023 6:45,B05256P,SMAN 100,-6.228401,106.88494,21,4/3/2023 7:06,3500,Teenager,4/3/2023,Monday,6
SYLN486U0E02TA,2295833910329055,dki,Taufik Farida,F,1981,JAK.02,Kampung Melayu - Duren Sawit,0,B05023P,Simpang Pahlawan Revolusi 1,-6.238658,106.899461,28,4/3/2023 5:43,B03135P,RS Duren Sawit 2,-6.232262,106.91019,39,4/3/2023 6:12,0,Adult,4/3/2023,Monday,5
BECP746A8C28NV,4968156435384914,dki,Martana Suartini,F,2007,11,Pulo Gebang - Matraman,0,P00233,St. Jatinegara 2,-6.215601,106.86805,13,4/3/2023 5:48,P00086,Jatinegara RS Premier,-6.221412,106.86807,14,4/3/2023 6:33,3500,Teenager,4/3/2023,Monday,5
KYNP204W3G29VA,6.76367E+11,flazz,Eluh Nugroho,F,2011,1C,Pesanggrahan - Blok M,0,B05833P,Univ. Moestopo Bintaro,-6.258469,106.76529,1,4/3/2023 6:00,B00147P,Bintaro Park VIew,-6.257977,106.75969,5,4/3/2023 6:23,3500,Teenager,4/3/2023,Monday,6
MSFD430X8W13TO,4384653483539395,dki,"Cut Hana Maulana, S.H.",F,1979,3B,Rusun Flamboyan - Cengkareng,0,B06299P,Jln. Kayu Besar Dalam,-6.122739,106.73129,2,4/3/2023 5:49,B02195P,Mall Taman Palem 3,-6.140548,106.73011,6,4/3/2023 6:42,0,Adult,4/3/2023,Monday,5
MKND874X1D96HF,2.13155E+14,emoney,Tgk. Ilsa Farida,M,1983,R1A,Pantai Maju - Kota,0,B06040P,Pantai Maju,-6.093637,106.75068,0,4/3/2023 5:45,B03322P,SD Diakonia 1,-6.112155,106.7893,23,4/3/2023 6:22,3500,Adult,4/3/2023,Monday,5
LFYJ535S2I30DP,4.68222E+12,online,"Drs. Nadia Ramadan, S.Sos",M,1960,M1,Blok M - Kota,0,P00183,Polda Metro Jaya,-6.221094,106.81028,5,4/3/2023 6:15,P00104,Karet Sudirman,-6.212457,106.82003,7,4/3/2023 6:50,3500,Elderly,4/3/2023,Monday,6
KQIA358G2N38CX,4394677357168120,dki,"Ibrahim Prayoga, S.H.",F,2001,7E,Kampung Rambutan - Ragunan,0,B02831P,Phe Tower Kebagusan,-6.299876,106.83323,16,4/3/2023 5:11,B02868P,Plaza Oleos,-6.29771,106.82965,17,4/3/2023 5:38,3500,Teenager,4/3/2023,Monday,5
RANO576G1J87EO,4905734029265594,dki,Ega Andriani,F,1990,1P,Senen - Blok M,0,B00102P,Balai Kota 1,-6.180598,106.82847,12,4/3/2023 6:26,B00221P,Bundaran Senayan 1,-6.227445,106.80187,29,4/3/2023 6:51,3500,Adult,4/3/2023,Monday,6
NZCE828E4J23AW,3.79335E+14,emoney,Salman Ramadan,M,1968,7D,Pancoran - Kampung Rambutan,0,P00039,Cikoko Stasiun Cawang Arah Barat,-6.243359,106.85815,11,4/3/2023 6:44,P00145,Pancoran Tugu Arah Barat,-6.2433,106.84388,13,4/3/2023 7:28,3500,Elderly,4/3/2023,Monday,6
OFPJ170M5O75AP,3.46911E+14,emoney,Zizi Nasyiah,M,1985,6H,Senen - Lebak Bulus,1,P00128,Lebak Bulus,-6.289413,106.77415,0,4/3/2023 5:12,P00121,Kuningan Timur,-6.234731,106.82902,15,4/3/2023 5:35,3500,Adult,4/3/2023,Monday,5
LKXU174O1E59EP,2247096843683316,dki,"Tgk. Aris Pradipta, M.M.",F,2010,14,Jakarta International Stadium - Senen,1,B01311P,Jln. Kwitang Timur,-6.173788,106.85185,2,4/3/2023 6:47,B03885P,Sbr. Jembatan Sukamulya III,-6.170489,106.85205,3,4/3/2023 7:34,3500,Teenager,4/3/2023,Monday,6
AXTN077R7Z77JM,6.7599E+11,flazz,Margana Narpati,F,1989,BW9,Monas - Pantai Indah Kapuk,1,B02476P,Monas 2,-6.175999,106.82311,7,4/3/2023 6:29,B02477P,Monas 3,-6.178787,106.82304,8,4/3/2023 7:24,0,Adult,4/3/2023,Monday,6
WQXL397G5U61OY,6.3904E+11,flazz,"Galang Megantara, S.Ked",M,1989,JIS3,Harmoni - Jakarta International Stadium,0,P00114,Kemayoran Landas Pacu Timur,-6.152181,106.85424,9,4/3/2023 6:32,P00161,Pecenongan,-6.16771,106.82819,12,4/3/2023 7:20,3500,Adult,4/3/2023,Monday,6
RLLZ887W3V14WZ,4947438345710982,dki,Rahayu Rahayu,F,2006,5M,Kampung Melayu - Tanah Abang via Cikini,1,B02994P,PTUN Jakarta,-6.196388,106.84025,16,4/3/2023 5:29,B05707P,Term. Kampung Melayu 2,-6.224516,106.86685,30,4/3/2023 5:58,3500,Teenager,4/3/2023,Monday,5
JJEK861K6E37KF,3539535695881465,dki,"Dr. Zulfa Tamba, S.E.I",M,1986,2,Pulo Gadung - Monas,0,P00202,Rawa Selatan,-6.173925,106.85809,9,4/3/2023 5:28,P00137,Monas,-6.176248,106.82286,19,4/3/2023 6:02,3500,Adult,4/3/2023,Monday,5
UANX737M9L25GI,5.74727E+11,flazz,drg. Lukita Rajata,F,1983,JAK.15,Bulak Turi - Tanjung Priok,0,B02761P,Pertamina Kilang Minyak,-6.108789,106.90537,41,4/3/2023 5:12,B01056P,Jln. Elpa Putih II,-6.110053,106.88721,50,4/3/2023 5:50,0,Adult,4/3/2023,Monday,5
VUWZ891M7I57EB,3.44304E+14,emoney,"R. Mila Wahyuni, S.Sos",F,2006,R1A,Pantai Maju - Kota,1,B00917P,Jln. BB Utara,-6.120279,106.79409,12,4/3/2023 6:50,B00242P,Centro Metro Broadway,-6.116362,106.76143,29,4/3/2023 7:30,3500,Teenager,4/3/2023,Monday,6
CXLW459Z3A28RD,3544931989278653,dki,"Artawan Iswahyudi, M.Pd",M,1991,6N,Ragunan - Blok M via Kemang,0,B00039P,Ampera Garden,-6.288794,106.81818,6,4/3/2023 5:43,B00066P,Arsip Nasional RI 1,-6.279439,106.81987,10,4/3/2023 6:19,3500,Adult,4/3/2023,Monday,5
AQPU510X2X44PT,4017802962833960,dki,Aurora Hasanah,F,1990,M11,Pulo Gebang - Pulo Gadung 2,0,P00102,Kampung Sumur,-6.214412,106.91189,6,4/3/2023 6:02,P00058,Flyover Klender,-6.213596,106.90306,7,4/3/2023 6:30,3500,Adult,4/3/2023,Monday,6
BRUT293K1O98GA,5465310774429054,dki,Hj. Rahmi Hartati,F,2010,JAK.112,Terminal Tanah Merah - Pulo Gadung,0,B01067P,Jln. Gading Mas Barat IV,-6.167384,106.91019,14,4/3/2023 6:59,B04854P,Simpang Jln. Bongo Raya,-6.170743,106.91001,17,4/3/2023 7:32,0,Teenager,4/3/2023,Monday,6
MMEX885R3T18QL,3.47394E+14,emoney,Darmaji Wahyuni,F,2003,9N,Pinang Ranti - Pramuka,0,P00064,Garuda Taman Mini,-6.290154,106.88116,1,4/3/2023 5:49,P00016,BKN,-6.257751,106.87,2,4/3/2023 6:39,3500,Teenager,4/3/2023,Monday,5
UNFK619O2R74DX,4723250872219869,dki,Cager Setiawan,M,1965,JAK.43B,Tongtek - Tebet Eco Park (TEP) - Cililitan,0,B03675P,Sbr. Jln. Cikoko Timur I,-6.244364,106.85867,19,4/3/2023 5:04,B05440P,St. Duren Kalibata 4,-6.255071,106.85506,23,4/3/2023 5:47,0,Elderly,4/3/2023,Monday,5
FTGY161E2O14MG,3545499820365948,dki,Cawuk Mayasari,F,2002,JAK.42,Kampung Melayu - Pondok Kelapa,1,B03484P,Sbr. Dirjen Anggaran,-6.227253,106.898692,18,4/3/2023 5:35,B03953P,Sbr. Klinik Win Medika,-6.22016,106.89843,22,4/3/2023 5:56,0,Teenager,4/3/2023,Monday,5
ELVU605Z3W26IF,2718070346782735,dki,Asman Uyainah,F,2005,2,Pulo Gadung - Monas,0,P00202,Rawa Selatan,-6.173925,106.85809,9,4/3/2023 6:35,P00161,Pecenongan,-6.16771,106.82819,18,4/3/2023 7:17,3500,Teenager,4/3/2023,Monday,6
KPDA909R2T72GD,3.42532E+14,emoney,Zulaikha Yulianti,F,1991,13,Ciledug - Tendean,1,P00044,CSW 1,-6.23994,106.79843,3,4/3/2023 5:51,P00268,Velbak,-6.239433,106.78552,5,4/3/2023 6:16,3500,Adult,4/3/2023,Monday,5
GIHF067H1Y81IV,3.49944E+14,emoney,Oliva Sirait,M,1983,7P,Pondok Kelapa - BKN,1,B02032P,Komplek Dolog Jaya,-6.24794,106.91572,15,4/3/2023 6:08,B01624P,Jln. Swakarsa III Pondok Kelapa,-6.244759,106.94249,30,4/3/2023 6:40,3500,Adult,4/3/2023,Monday,6
IXJW013G5W79VX,4428582927102421723,brizzi,"dr. Belinda Handayani, S.E.",M,2002,JAK.02,Kampung Melayu - Duren Sawit,0,B02665P,Ps. Pondok Bambu 1,-6.238102,106.90243,29,4/3/2023 6:36,B00636P,Gereja Santa Anna 1,-6.233953,106.90998,33,4/3/2023 7:13,0,Teenager,4/3/2023,Monday,6
PKAM574R5S22UG,5.66172E+11,flazz,Laila Simanjuntak,F,1992,11,Pulo Gebang - Matraman,1,P00151,Pasar Enjo,-6.214881,106.87819,3,4/3/2023 5:13,P00080,Imigrasi Jakarta Timur,-6.214632,106.88227,4,4/3/2023 6:02,3500,Adult,4/3/2023,Monday,5
IQBJ843C4G34DE,2.13122E+14,emoney,Pranata Wahyudin,F,2009,JAK.36,Cilangkap - Cililitan,0,B02638P,Ps. Kramat Jati 2,-6.269037,106.86664,40,4/3/2023 5:58,B01428P,Jln. Olahraga 1 Raya Bogor,-6.267006,106.86595,41,4/3/2023 6:39,0,Teenager,4/3/2023,Monday,5
SRIX686S0S08SW,3527853482331808,dki,Puti Paris Marpaung,M,2003,13B,Puri Beta - Pancoran Barat,1,P00106,Kebayoran Lama,-6.23834,106.77752,8,4/3/2023 6:33,P00096,JORR,-6.236104,106.75488,12,4/3/2023 7:29,3500,Teenager,4/3/2023,Monday,6
MLTY652D7F29HW,5542490449138301,dki,Sutan Narji Nasyidah,M,2001,1Q,Rempoa - Blok M,1,B02540P,One Park Residences,-6.245436,106.78844,9,4/3/2023 6:51,B00959P,Jln. Bungur,-6.247708,106.7814,11,4/3/2023 7:29,3500,Teenager,4/3/2023,Monday,6
NICD824U6H93DE,4380875529452127,dki,Tirtayasa Sitorus,F,1988,JAK.06,Kampung Rambutan - Pondok Gede,0,B01301P,Jln. Kramat Lubang Buaya,-6.291363,106.90599,12,4/3/2023 5:37,B02767P,Pertigaan Cedang 1,-6.301603,106.9125,24,4/3/2023 6:06,0,Adult,4/3/2023,Monday,5
YEOK544W1J67OX,4172238784006231,dki,"Galak Prayoga, S.Pd",M,1993,JAK.14,Tanah Abang - Meruya,1,B01875P,Kec. Kembangan,-6.195068,106.74247,7,4/3/2023 5:33,B01180P,Jln. Jeruk Manis,-6.197439,106.76534,18,4/3/2023 6:13,0,Adult,4/3/2023,Monday,5
OPNL705D9K64FN,3.40065E+14,emoney,Tgk. Garda Utami,F,2010,M7,Kampung Rambutan - Monas,0,P00145,Pancoran Tugu Arah Barat,-6.2433,106.84388,14,4/3/2023 5:43,P00025,Bundaran HI,-6.193021,106.823,24,4/3/2023 6:16,3500,Teenager,4/3/2023,Monday,5
KHKM512K0T88LD,4268640600849949,dki,"Elvina Situmorang, S.Psi",F,1985,JAK.15,Bulak Turi - Tanjung Priok,0,B05351P,SMPN 143,-6.108442,106.93549,16,4/3/2023 5:15,B01325P,Jln. Lorong 22,-6.108141,106.89932,44,4/3/2023 5:51,0,Adult,4/3/2023,Monday,5
RHUT145C1U25ZY,4.29056E+12,online,Lutfan Hakim,M,2011,T21,Palem Semi - Bundaran Senayan,1,B00589P,GBK Pintu 7,-6.222095,106.80861,3,4/3/2023 5:43,B02556P,Palem Semi 1,-6.218812,106.61807,14,4/3/2023 6:09,20000,Teenager,4/3/2023,Monday,5
TWAK265Z0M88QR,2.13155E+14,emoney,Restu Waluyo,F,1984,12A,Pelabuhan Kaliadem - Kota,0,B05324P,SMKN 56,-6.119094,106.79423,9,4/3/2023 6:13,P00138,Museum Fatahillah,-6.13393,106.81209,18,4/3/2023 6:50,3500,Adult,4/3/2023,Monday,6
JQIF022K9P74RM,4294484188649274,dki,Gara Sitompul,F,1999,9D,Pasar Minggu - Tanah Abang,0,B00693P,Grand Pasar Minggu,-6.290648,106.84236,45,4/3/2023 6:46,B02647P,Pasar Minggu,-6.284413,106.84414,47,4/3/2023 7:09,3500,Teenager,4/3/2023,Monday,6
MQCN972F9X71NY,1.80058E+14,emoney,Daryani Prabowo,M,1989,1,Blok M - Kota,1,P00104,Karet Sudirman,-6.212457,106.82003,14,4/3/2023 6:20,P00133,Masjid Agung,-6.236483,106.79845,19,4/3/2023 7:10,3500,Adult,4/3/2023,Monday,6
KINJ335N6L86YT,3551174827324245,dki,Gangsa Widodo,M,1966,3A,Rusun Pesakih - Kalideres,1,B02760P,Pertamina Kalideres Daan Mogot,-6.15571,106.70927,2,4/3/2023 6:38,B03286P,Rusun Pesakih,-6.161468,106.71698,4,4/3/2023 7:03,0,Elderly,4/3/2023,Monday,6
TDIY341Y5S79UU,3.40858E+14,emoney,"Yance Pratama, S.Kom",F,1994,6N,Ragunan - Blok M via Kemang,1,B04209P,Sbr. Plaza Kemang 88,-6.270024,106.81553,12,4/3/2023 6:51,B03197P,RSIA Kemang,-6.285839,106.8188,18,4/3/2023 7:17,3500,Adult,4/3/2023,Monday,6
TFRA396G6W78PD,3569562588766630,dki,"dr. Sakura Budiman, S.IP",M,1972,3C,Rusun Kapuk Muara - Penjaringan,1,P00170,Penjaringan,-6.126306,106.79203,0,4/3/2023 6:16,B03277P,Rusun Kapuk Muara,-6.135667,106.76299,1,4/3/2023 7:11,0,Elderly,4/3/2023,Monday,6
GXOP506G9B61EP,1.80017E+14,emoney,"Zalindra Irawan, M.TI.",M,1992,M8,Lebak Bulus - Pasar Baru,0,P00245,Tanah Kusir Kodim,-6.256997,106.78168,20,4/3/2023 5:19,P00184,Pondok Indah 1,-6.286761,106.77999,22,4/3/2023 5:47,3500,Adult,4/3/2023,Monday,5
XESL868N6A66XN,3.73945E+14,emoney,"Jamal Pudjiastuti, S.I.Kom",F,1981,B21,Bekasi Timur - Cawang,1,B02263P,Masjid Amar Maruf 2,-6.255062,107.02206,7,4/3/2023 5:02,B05622P,Taman Margahayu 2,-6.24846,107.02153,10,4/3/2023 5:57,3500,Adult,4/3/2023,Monday,5
IVHH403J9T51JH,5134532253940704,dki,Suci Wacana,M,1985,12A,Pelabuhan Kaliadem - Kota,1,B05253P,SMAK Penabur Enam 2,-6.115644,106.77506,15,4/3/2023 6:12,B02709P,Pelabuhan Kali Adem,-6.104615,106.77094,18,4/3/2023 7:12,3500,Adult,4/3/2023,Monday,6
YJMS457L2O20JF,3.79764E+14,emoney,Saka Sihombing,F,1969,JAK.71,Kampung Rambutan - Pinang Ranti,0,B03360P,SDN Dukuh 01,-6.287794,106.87406,18,4/3/2023 5:12,B04218P,Sbr. Polsek Makasar,-6.29086,106.8844,21,4/3/2023 6:06,0,Elderly,4/3/2023,Monday,5
NNAE999Q4V92XM,4189640459822695962,brizzi,Mutia Mayasari,M,1978,JAK.77,Tanjung Priok - Jembatan Item,0,B06877P,Simpang Jln. Cemara,-6.12663,106.85721,1,4/3/2023 5:11,B06065P,Puskesmas Sunter Agung I,-6.132513,106.85557,9,4/3/2023 5:35,0,Adult,4/3/2023,Monday,5
UCMI767D7M79GS,4766007569419196,dki,"Danu Suartini, S.Farm",M,2010,M3,Kalideres - Bundaran HI via Veteran,1,P00237,Sumur Bor,-6.153046,106.71929,2,4/3/2023 6:49,P00009,Bank Indonesia Arah Selatan,-6.184784,106.82326,14,4/3/2023 7:21,3500,Teenager,4/3/2023,Monday,6
ZHFN555D9L05LU,3576239635494729,dki,Harsaya Natsir,F,1970,JAK.44,Andara - Stasiun Universitas Pancasila,0,B04386P,Sbr. Sekolah Islam Al Azhar Jagakarsa,-6.330035,106.82621,25,4/3/2023 5:50,B06832P,Gg. H. Ali,-6.327369,106.833219,34,4/3/2023 6:37,0,Elderly,4/3/2023,Monday,5
WHTZ386I9S44YF,5.87888E+11,flazz,Drs. Harjo Nurdiyanti,M,1986,14,Jakarta International Stadium - Senen,0,B00292P,Danau Agung 1,-6.147281,106.8582,8,4/3/2023 6:42,B00770P,Honda Letjen Suprapto,-6.174933,106.84973,16,4/3/2023 7:08,3500,Adult,4/3/2023,Monday,6
VHUC320U1S58CB,5.67286E+11,flazz,"Dt. Atmaja Suartini, M.Farm",F,2000,JAK.48B,Stasiun Tebet - Kampung Melayu,0,B02272P,Masjid As Sudairi,-6.220626,106.8591,1,4/3/2023 6:12,B01732P,Jatinegara Timur,-6.220486,106.86825,11,4/3/2023 6:57,0,Teenager,4/3/2023,Monday,6
DBWI728C0M55ND,4.09712E+12,online,Dewi Mansur,M,1994,8K,Batusari - Grogol,1,B05177P,Simpang Tj. Duren Timur 5,-6.180482,106.78375,12,4/3/2023 6:41,B03637P,Sbr. Jln. Angsana Kemanggisan,-6.194813,106.78213,16,4/3/2023 7:20,3500,Adult,4/3/2023,Monday,6
HHCJ093F0W41XK,3.78851E+14,emoney,Tina Hutasoit,F,1981,JAK.19,Pinang Ranti - Kampung Rambutan,0,B00563P,Gg. Suka Damai,-6.295718,106.89906,14,4/3/2023 5:57,B01297P,Jln. Kramat I Rawabinong,-6.298205,106.9054,27,4/3/2023 6:49,0,Adult,4/3/2023,Monday,5
JUNS207R4F95UA,1.80023E+14,emoney,"Tgk. Tania Zulaika, M.Pd",F,2010,M10,PGC 2 - Tanjung Priok,1,P00287,Permai Koja Arah Selatan,-6.114359,106.89314,2,4/3/2023 5:59,P00105,Kayu Putih Rawasari,-6.187453,106.87542,10,4/3/2023 6:47,3500,Teenager,4/3/2023,Monday,5
LFIW578V8Y12XO,2237440645700724,dki,Latika Sirait,M,1953,10D,Kampung Rambutan - Tanjung Priok,1,P00036,Cempaka Putih,-6.174207,106.87642,9,4/3/2023 6:03,P00182,Plumpang Pertamina Arah Utara,-6.12848,106.8937,13,4/3/2023 6:28,3500,Elderly,4/3/2023,Monday,6
GYVC538M6B25WO,6011162006507240,dki,Lasmanto Budiman,M,1989,JAK.75,Cililitan - Kp. Pulo,0,B00671P,Graha Dirgantara,-6.255702,106.88296,4,4/3/2023 5:42,B03786P,Sbr. Jln. Masjid Al Munir,-6.271471,106.87734,25,4/3/2023 6:21,0,Adult,4/3/2023,Monday,5
QRFR658M6P01AH,4730280883020443501,brizzi,Zamira Puspita,M,1977,B11,Summarecon Bekasi - BNN,0,B01728P,Jatibening 1,-6.257161,106.94651,5,4/3/2023 6:08,B00232P,Cawang Blue Bird,-6.248836,106.87801,6,4/3/2023 6:41,3500,Elderly,4/3/2023,Monday,6
TKQW976R2D32RY,3505707886664931,dki,T. Bagas Halimah,F,1994,JAK.52,Terminal Kalideres - Terminal Muara Angke,0,B01829P,Karang Asri,-6.112414,106.77306,26,4/3/2023 5:21,B05714P,Term. Muara Angke 2,-6.109001,106.77349,27,4/3/2023 6:12,0,Adult,4/3/2023,Monday,5
PCGM443G2W62OB,4450403105752326,dki,"Dr. Intan Mulyani, S.E.I",M,1977,JAK.37,Cililitan - Condet via Kayu Manis,0,B00908P,Jln. Batu Permata V,-6.279588,106.86244,12,4/3/2023 5:36,B04716P,Simpang Batu Ampar IV Inerbang,-6.28148,106.86361,14,4/3/2023 6:25,0,Elderly,4/3/2023,Monday,5
PEGV120E5W96OH,4074114259011835374,brizzi,Vero Hutagalung,F,1983,JAK.31,Blok M - Andara,0,B03711P,Sbr. Jln. H. Jian 2B Cipete,-6.264625,106.8043,18,4/3/2023 6:07,B05388P,SMPN 68,-6.278279,106.79964,30,4/3/2023 6:44,0,Adult,4/3/2023,Monday,6
BUQT197K3D65PN,4.00004E+12,online,Diah Marpaung,M,2012,11M,Rusun Rawa Bebek - Bukit Duri,0,P00169,Penggilingan,-6.214132,106.93961,2,4/3/2023 5:32,P00174,Perumnas Klender,-6.216689,106.93054,3,4/3/2023 6:27,0,Child,4/3/2023,Monday,5
UNSO267V8F26WP,4.11233E+12,online,"Drs. Gilda Sinaga, S.Psi",M,1994,JAK.43C,Sarana Jaya - Tebet Eco Park (TEP) - Stasiun Cawang,1,B06086P,Tebet Eco Park Selatan 3,-6.241699,106.85365,1,4/3/2023 6:23,B06268P,Rusun Harum Tebet,-6.235196,106.85195,4,4/3/2023 7:14,0,Adult,4/3/2023,Monday,6
RHCN069U6G42WD,3.05835E+13,bni,Bahuwirya Rahayu,M,1981,2F,Rusun Cakung Barat - Pulo Gadung,1,B06183P,Jln. Anggrek Raya,-6.205168,106.9229,8,4/3/2023 5:13,P00191,PTC Pulo Gadung,-6.182622,106.91561,15,4/3/2023 6:04,0,Adult,4/3/2023,Monday,5
QMHC825R0K38KM,3537543297101185,dki,Samsul Ramadan,M,1966,M11,Pulo Gebang - Pulo Gadung 2,1,P00158,Pasar Pulo Gadung,-6.187434,106.90591,0,4/3/2023 6:23,P00270,Walikota Jakarta Timur,-6.21254,106.94537,7,4/3/2023 6:52,3500,Elderly,4/3/2023,Monday,6
WGRY331M3O87VE,2720484776954605,dki,Bancar Irawan,M,1999,3B,Rusun Flamboyan - Cengkareng,0,B03206P,RSUD Boulevard Raya,-6.13781,106.7304,4,4/3/2023 6:50,B02195P,Mall Taman Palem 3,-6.140548,106.73011,6,4/3/2023 7:46,0,Teenager,4/3/2023,Monday,6
TKRV681O2S46RW,3570422408611549,dki,"Jati Nainggolan, M.TI.",F,1987,8C,Kebayoran Lama - Tanah Abang,1,P00083,Jak Lingko Tanah Abang,-6.185496,106.81105,0,4/3/2023 5:57,B01638P,Jln. Taman Jatibaru Timur,-6.182778,106.8129,3,4/3/2023 6:55,3500,Adult,4/3/2023,Monday,5
ELFD362R2U94NT,2291402671071407,dki,Puspa Saptono,F,1984,M2,Pulo Gadung - Monas,0,P00014,Bermis,-6.178203,106.89859,1,4/3/2023 5:20,P00006,Atrium,-6.176251,106.84023,12,4/3/2023 6:04,3500,Adult,4/3/2023,Monday,5
YYXK265F5N59SE,6.76173E+11,flazz,"Dr. Zaenab Wulandari, S.Ked",M,1996,12B,Pluit - Senen,1,B05080P,Simpang Pluit Raya,-6.127123,106.80441,26,4/3/2023 5:43,P00123,Landmark Pluit Auto Plaza,-6.125258,106.79971,28,4/3/2023 6:29,3500,Adult,4/3/2023,Monday,5
ZGJG301G9Z71AR,1.80021E+14,emoney,T. Karna Sihombing,F,2001,5D,PGC 1 - Ancol,0,P00109,Matraman Baru,-6.21288,106.86115,7,4/3/2023 5:28,P00118,Kramat Sentiong,-6.18798,106.84595,13,4/3/2023 6:08,3500,Teenager,4/3/2023,Monday,5
KNSE319Q1P35CC,5.02072E+11,flazz,Kalim Namaga,M,1971,9D,Pasar Minggu - Tanah Abang,1,B05716P,Term. Pasar Minggu 2,-6.282492,106.84455,1,4/3/2023 6:25,P00256,MH Thamrin,-6.188149,106.82299,37,4/3/2023 7:11,3500,Elderly,4/3/2023,Monday,6
RMJF585F2W51BQ,3.0385E+13,bni,"dr. Vega Rahimah, S.Pt",M,2003,JAK.117,Tanjung Priok - Tanah Merdeka,0,B04040P,Sbr. Masjid Ar Rohmah,-6.118964,106.89568,7,4/3/2023 6:23,B04863P,Simpang Jln. Kramat Jaya 1,-6.108656,106.91734,25,4/3/2023 6:55,0,Teenager,4/3/2023,Monday,6
KFYK655N1H73XS,6590854673757012,dki,Bajragin Najmudin,M,1986,3H,Jelambar - Kota,0,P00087,Jelambar,-6.166548,106.78651,0,4/3/2023 6:03,P00138,Museum Fatahillah,-6.13393,106.81209,9,4/3/2023 6:35,3500,Adult,4/3/2023,Monday,6
WTBE175B2A58NC,4963710913075879668,brizzi,Ophelia Firmansyah,M,2000,14,Jakarta International Stadium - Senen,0,B04647P,Sekolah Penabur Gunung Sahari,-6.170053,106.84024,20,4/3/2023 6:00,B05725P,Term. Senen,-6.17356,106.84213,21,4/3/2023 6:54,3500,Teenager,4/3/2023,Monday,6
SVRH922T8G79FY,2.13105E+14,emoney,"Sutan Garda Tampubolon, S.Pd",M,1956,JAK.49,Lebak Bulus - Cipulir,0,B01790P,JPO Timur Pondok Indah 1,-6.287054,106.77989,48,4/3/2023 5:59,B05492P,St. MRT Lebak Bulus,-6.289421,106.77436,49,4/3/2023 6:53,0,Elderly,4/3/2023,Monday,5
WNJA365V4N56HF,3.42876E+14,emoney,Marsito Melani,F,2010,7A,Kampung Rambutan - Lebak Bulus,1,B00610P,Gelanggang TB Simatupang,-6.289097,106.77909,4,4/3/2023 6:37,B01377P,Jln. Mastrip,-6.306793,106.87756,25,4/3/2023 6:59,3500,Teenager,4/3/2023,Monday,6
XVWU715D9V59FV,4744480387450088900,brizzi,Galur Riyanti,F,1980,JAK.44,Andara - Stasiun Universitas Pancasila,0,B01147P,Jln. H. Terin Pangkalan Jati,-6.327961,106.80054,0,4/3/2023 6:45,B01846P,Kav Polri Blok E Jagakarsa,-6.314309,106.81633,13,4/3/2023 7:36,0,Adult,4/3/2023,Monday,6
SLHT241M5V31BZ,4909284437358495207,brizzi,Bakiman Budiman,F,1981,7Q,Blok M - PGC,1,B01509P,Jln. Poncol Jaya 1,-6.239706,106.81889,25,4/3/2023 6:35,B02880P,PLN Pusat,-6.240011,106.80376,30,4/3/2023 7:03,3500,Adult,4/3/2023,Monday,6
CUBV879R6E17WU,2267435685058176,dki,"R.M. Simon Wastuti, S.T.",F,1995,JAK.20,Cawang UKI - Lubang Buaya,0,B03553P,Sbr. Gg. Pos Komodor,-6.265515,106.88332,13,4/3/2023 6:09,B05751P,TK Angkasa 8,-6.285191,106.90125,39,4/3/2023 6:40,0,Adult,4/3/2023,Monday,6
SFFW927I8N52GM,4613366061817460310,brizzi,"Lurhur Prasetya, S.E.I",M,1991,1M,Meruya - Blok M,0,B03697P,Sbr. Jln. Flamboyan Srengseng,-6.201447,106.75576,11,4/3/2023 6:23,B01860P,Kebayoran Baru Velbak 2,-6.239272,106.78492,34,4/3/2023 7:02,3500,Adult,4/3/2023,Monday,6
NZOZ563E7A86QX,4664503638851963221,brizzi,Darman Puspasari,F,1996,JAK.118,Taman Waduk Papanggo - Kota Tua,0,B06696P,Jln. Hidup Baru,-6.1398,106.8352,25,4/3/2023 6:36,B02213P,Mangga Dua Square,-6.135311,106.83102,28,4/3/2023 7:16,0,Adult,4/3/2023,Monday,6
XTVN886V6A58RC,3.41371E+14,emoney,Pia Simanjuntak,F,1977,JAK.36,Cilangkap - Cililitan,1,B04977P,Simpang Mabes Hankam Raya Ceger,-6.306299,106.88855,13,4/3/2023 6:27,B02576P,Panti Sosial Bina Laras,-6.31946,106.89013,19,4/3/2023 7:23,0,Elderly,4/3/2023,Monday,6
BNNJ428H8B05IR,3.02767E+13,bni,"Teguh Wijaya, S.Pt",F,1981,5C,PGC - Juanda,0,P00253,Tegalan,-6.203101,106.85715,10,4/3/2023 6:56,P00142,Pal Putih,-6.184631,106.84402,15,4/3/2023 7:27,3500,Adult,4/3/2023,Monday,6
LDMO585I7Y51LA,3549191016294752,dki,"T. Gangsa Hutasoit, S.IP",M,1985,JAK.27,Pulo Gebang - Rorotan,1,B02835P,Pintu Air Gempol 1,-6.183327,106.95957,23,4/3/2023 6:56,B00575P,Gg. Umbang Lingkar Timur,-6.189303,106.94454,33,4/3/2023 7:53,0,Adult,4/3/2023,Monday,6
CILM584S6W21DC,2679374058097150,dki,"Dina Zulkarnain, M.M.",M,1991,B11,Summarecon Bekasi - BNN,0,B03155P,RS Mitra Keluarga 1,-6.240672,106.99317,1,4/3/2023 5:55,B00232P,Cawang Blue Bird,-6.248836,106.87801,6,4/3/2023 6:34,3500,Adult,4/3/2023,Monday,5
WWNB500S1E66DW,4104888875282062619,brizzi,Tgk. Uda Gunarto,F,1996,6Q,Dukuh Atas - Casablanca via Epicentrum Raya,0,B02082P,Casablanca,-6.22425,106.84452,4,4/3/2023 6:09,B04109P,Sbr. Multivision Tower,-6.212375,106.83303,13,4/3/2023 6:38,3500,Adult,4/3/2023,Monday,6
SLIM980A3X96XT,4547245090487583462,brizzi,Padmi Marpaung,F,1992,4E,Rusun Jatinegara Kaum - Pulo Gadung,0,B02319P,Masjid Jami Al Makmur Klender,-6.212322,106.90082,2,4/3/2023 6:08,B05798P,Transjakarta Pool Klender,-6.205191,106.90301,7,4/3/2023 6:48,0,Adult,4/3/2023,Monday,6
XHEU123Y1Z09JV,3560398544907466,dki,"drg. Gawati Uyainah, S.T.",M,1994,JAK.13,Tanah Abang - Jembatan Lima,1,B04949P,Simpang Kopi Bandengan Selatan,-6.135839,106.80689,6,4/3/2023 6:37,B02692P,Ps. Tomas,-6.179192,106.81306,29,4/3/2023 7:13,0,Adult,4/3/2023,Monday,6
MHRF005V2N53OQ,3528988342978833,dki,Narji Waskita,M,1985,JIS3,Harmoni - Jakarta International Stadium,1,B04789P,Simpang Danau Sunter Utara Barat,-6.139853,106.85663,11,4/3/2023 6:55,B01745P,Jembatan Item,-6.130078,106.85492,13,4/3/2023 7:43,3500,Adult,4/3/2023,Monday,6
IKZD231G3P02MZ,3535679723903364,dki,"Dr. Gamanto Winarsih, S.Ked",F,1991,JAK.84,Terminal Kampung Melayu - Kapin Raya,0,B02598P,Ps. Ciplak Cibesel,-6.236104,106.88067,10,4/3/2023 6:58,B05824P,Univ. Borobudur 1,-6.24157,106.89641,17,4/3/2023 7:44,0,Adult,4/3/2023,Monday,6
AVMF680H1S53KJ,3.45353E+14,emoney,Ir. Salwa Yuniar,F,2005,2H,Rusun Jati Rawasari - Senen,1,B04344P,Sbr. SDN Johar Baru 10,-6.181178,106.86028,13,4/3/2023 6:49,B03273P,Rusun Jati Rawasari,-6.183517,106.86389,14,4/3/2023 7:39,0,Teenager,4/3/2023,Monday,6
HOIM404G0W62HL,4719913296770918,dki,Umar Pradana,M,2003,JAK.08,Roxy - Benhil,1,B04088P,Sbr. Mess Polwan Esthi Bhakti Warapsari,-6.206604,106.81005,6,4/3/2023 5:46,B01925P,Kel. Kb. Kacang,-6.190837,106.81501,17,4/3/2023 6:44,0,Teenager,4/3/2023,Monday,5
YTOA058V9U73VN,4.70999E+12,online,"Cut Gabriella Haryanti, S.Sos",M,1974,T21,Palem Semi - Bundaran Senayan,1,B00808P,Islamic,-6.228521,106.61473,10,4/3/2023 6:37,B02557P,Palem Semi 2,-6.220361,106.61649,12,4/3/2023 7:20,20000,Elderly,4/3/2023,Monday,6
YEZH881F9T50DI,6011141476414459,dki,Kariman Rajata,M,1971,8E,Bintaro - Blok M,0,B01822P,Kantor Pos Kebayoran Lama,-6.249119,106.778,19,4/3/2023 5:18,P00155,Pasar Kebayoran Lama,-6.238413,106.78323,23,4/3/2023 5:58,3500,Elderly,4/3/2023,Monday,5
VBTE237H7I30UK,2.13137E+14,emoney,drg. Gawati Maryadi,M,1992,JAK.23,Senen - Pisangan Baru,1,B06443P,Jln. Pramuka 1,-6.195283,106.860021,10,4/3/2023 6:53,B06129P,BPPK Jakarta,-6.189843,106.858846,16,4/3/2023 7:24,0,Adult,4/3/2023,Monday,6
MCWO805A6Q66MX,3570416613897992,dki,"Gawati Damanik, S.E.",F,2010,5D,PGC 1 - Ancol,0,P00109,Matraman Baru,-6.21288,106.86115,8,4/3/2023 6:38,P00224,Slamet Riyadi,-6.208533,106.85929,9,4/3/2023 7:32,3500,Teenager,4/3/2023,Monday,6
JINW306B9X30QT,2.1319E+14,emoney,Fathonah Anggraini,M,2006,6M,Stasiun Manggarai - Blok M,0,P00160,Patra Kuningan,-6.232677,106.832087,8,4/3/2023 5:16,P00065,Gatot Subroto Jamsostek Arah Barat,-6.233551,106.82208,10,4/3/2023 5:41,3500,Teenager,4/3/2023,Monday,5
ENXD420E9G92TO,4817620823758230,dki,"Dina Halimah, S.Psi",F,1993,JAK.07,Tanah Abang - Grogol via Tawakal,0,B05884P,Wisma Asia II,-6.189386,106.79791,19,4/3/2023 6:21,B04952P,Simpang Kota Bambu Utara I,-6.186126,106.80866,24,4/3/2023 7:09,0,Adult,4/3/2023,Monday,6
AQHO766Z1B38WS,3518707807771562,dki,Hasna Manullang,F,1977,JAK.22,Dwikora - Penas Kalimalang,1,B02167P,Mabes Au Dinas Psikologi,-6.251267,106.88826,9,4/3/2023 6:03,B04983P,Simpang Mandala Maphalindo,-6.249189,106.89108,10,4/3/2023 6:45,0,Elderly,4/3/2023,Monday,6
EJEA941B6N13PQ,4345294247705168,dki,"Dasa Hastuti, S.Psi",M,1984,JAK.115,Term. Tj. Priok - Pegangsaan II IGI,1,B01056P,Jln. Elpa Putih II,-6.110053,106.88721,42,4/3/2023 6:19,B05728P,Term. Tj. Priok 1,-6.1098,106.88118,44,4/3/2023 6:53,0,Adult,4/3/2023,Monday,6
KZGL815X5W31IV,4375765946745400,dki,Ghaliyati Prayoga,F,1987,5D,PGC 1 - Ancol,0,P00031,Cawang Otista,-6.243607,106.86876,4,4/3/2023 5:16,P00070,Gelanggang Remaja,-6.235445,106.86795,5,4/3/2023 5:41,3500,Adult,4/3/2023,Monday,5
PQFD683F4V24VJ,3573742802282614,dki,"Hj. Hesti Wijaya, S.IP",F,1994,JAK.21,Cililitan - Dwikora,1,B02443P,Midi Utama Cililitan 1,-6.264014,106.86929,28,4/3/2023 6:23,B01247P,Jln. Kelapa Gading III Cililitan Besar,-6.263858,106.86859,29,4/3/2023 7:20,0,Adult,4/3/2023,Monday,6
UDDP570L6N53QS,3.44423E+14,emoney,dr. Gasti Budiyanto,M,1998,5C,PGC - Juanda,0,P00134,Matraman 1,-6.19998,106.85443,11,4/3/2023 5:22,P00122,Kwitang,-6.181051,106.83866,16,4/3/2023 5:54,3500,Teenager,4/3/2023,Monday,5
EUPW593V1E27UK,6011618540818377,dki,"Cut Agnes Thamrin, S.Psi",F,1970,JAK.26,Rawamangun - Duren Sawit,1,B00527P,Gg. Padi Pelita Cipinang,-6.211832,106.8877,19,4/3/2023 5:10,B03600P,Sbr. GOR Pondok Bambu,-6.223572,106.90377,41,4/3/2023 6:04,0,Elderly,4/3/2023,Monday,5
NQKI710A7B46OS,3508055251895822,dki,Jasmani Sirait,M,1975,L13E,Puri Beta - Kuningan (Express),0,P00120,Kuningan Madya,-6.21341,106.8305,10,4/3/2023 6:08,P00124,Latuharhary,-6.202761,106.82771,12,4/3/2023 7:03,3500,Elderly,4/3/2023,Monday,6
KZNR646Q6B40PH,1.80001E+14,emoney,"Ir. Yani Sihombing, S.H.",M,1973,12P,St. LRT Pegangsaan Dua - JIS,1,B05858P,Villa Bukit Gading,-6.157028,106.89966,11,4/3/2023 6:28,B03050P,Puskesmas Kelapa Gading,-6.157489,106.90703,13,4/3/2023 6:49,3500,Elderly,4/3/2023,Monday,6
VQIJ499K5A71UK,1.80065E+14,emoney,"Dt. Murti Salahudin, S.T.",F,2008,JAK.64,Lenteng Agung - Aseli,1,B04342P,Sbr. SDN Jagakarsa 05,-6.337,106.81848,21,4/3/2023 5:18,B05326P,SMKN 63,-6.351697,106.79855,35,4/3/2023 6:17,0,Teenager,4/3/2023,Monday,5
XAYZ349R8U03QO,3.01583E+13,bni,R. Yani Ardianto,F,1984,9N,Pinang Ranti - Pramuka,0,P00064,Garuda Taman Mini,-6.290154,106.88116,1,4/3/2023 6:27,P00016,BKN,-6.257751,106.87,2,4/3/2023 7:18,3500,Adult,4/3/2023,Monday,6
ESJQ990H8Q22LV,3.45712E+14,emoney,Kawaya Oktaviani,M,2009,1T,Cibubur - Balai Kota,1,B00102P,Balai Kota 1,-6.180598,106.82847,0,4/3/2023 5:28,B00360P,Flyover Karet 2,-6.214808,106.81847,11,4/3/2023 6:09,20000,Teenager,4/3/2023,Monday,5
RIGQ092B1C22JU,3521407549788058,dki,Karma Narpati,F,1994,JAK.47,Pasar Minggu - Ciganjur via KB Ragunan,1,B04331P,Sbr. SDN Cipedak 05,-6.354871,106.80112,46,4/3/2023 5:37,B05670P,Tanah Baru Cipedak,-6.363462,106.80684,50,4/3/2023 6:15,0,Adult,4/3/2023,Monday,5
DLUY732C1F10IM,3.76899E+14,emoney,Luhung Hutapea,F,1981,1F,Stasiun Palmerah - Bundaran Senayan,0,P00218,Senayan JCC Arah Timur,-6.214145,106.809,4,4/3/2023 5:41,P00026,Bundaran Senayan,-6.227869,106.80094,6,4/3/2023 6:26,3500,Adult,4/3/2023,Monday,5
AVII375J2K62NB,4.96649E+12,online,Eka Yolanda,M,1998,B21,Bekasi Timur - Cawang,1,B05560P,Superindo Bulak Kapal 2,-6.249488,107.02384,9,4/3/2023 5:34,B05622P,Taman Margahayu 2,-6.24846,107.02153,10,4/3/2023 5:58,3500,Teenager,4/3/2023,Monday,5
VIIH700Y7Q03PL,3565938568828570,dki,Oliva Saefullah,F,1987,12C,Rusun Waduk Pluit - Penjaringan,0,B05405P,SPBU Gedong Panjang,-6.130757,106.80557,6,4/3/2023 6:49,B06658P,Kel. Penjaringan,-6.125396,106.80071,10,4/3/2023 7:20,0,Adult,4/3/2023,Monday,6
ZULU908O5C48ME,2407683922581481,dki,Irfan Damanik,M,1993,14,Jakarta International Stadium - Senen,1,B01745P,Jembatan Item,-6.130078,106.85492,13,4/3/2023 6:15,P00095,JIS,-6.126689,106.85587,14,4/3/2023 6:51,3500,Adult,4/3/2023,Monday,6
NVJR689V9Y19TT,6.76369E+11,flazz,"Tgk. Puput Hartati, S.Psi",F,1982,2F,Rusun Cakung Barat - Pulo Gadung,1,B03267P,Rusun Cakung Barat Albo,-6.16751,106.93243,0,4/3/2023 5:52,B06150P,Pulo Jaya,-6.194979,106.92242,13,4/3/2023 6:51,0,Adult,4/3/2023,Monday,5
BYPO952B8M23LM,2484941381862990,dki,"Tgk. Joko Maryadi, M.Ak",M,1981,13C,Puri Beta - Dukuh Atas,0,P00136,Mayestik,-6.241921,106.79077,8,4/3/2023 5:59,P00200,Rawa Barat,-6.238947,106.81624,11,4/3/2023 6:25,3500,Adult,4/3/2023,Monday,5
UMNC719B6F52LL,3.01007E+13,bni,"Galak Budiman, S.Pt",F,2008,1,Blok M - Kota,0,P00012,Bendungan Hilir,-6.217137,106.81528,6,4/3/2023 5:05,P00137,Monas,-6.176248,106.82286,13,4/3/2023 6:05,3500,Teenager,4/3/2023,Monday,5
IHDN076U2V99UG,3560571608142499,dki,"Lasmanto Suwarno, S.Psi",M,1997,JAK.01,Tanjung Priok - Plumpang,1,B01059P,Jln. Flamboyan Berdikari,-6.120868,106.89439,0,4/3/2023 5:41,B01629P,Jln. Swasembada Barat V,-6.124938,106.88497,14,4/3/2023 6:02,0,Adult,4/3/2023,Monday,5
MNQL870O6S91AP,4880377652769980677,brizzi,Drs. Betania Wahyuni,M,2010,JAK.120,JIS - Terminal Muara Angke,0,B04584P,Sbr. Waduk Pluit,-6.113824,106.79461,34,4/3/2023 6:43,B03323P,SD Diakonia 2,-6.112346,106.78905,36,4/3/2023 7:18,0,Teenager,4/3/2023,Monday,6
NZAY182R6T96VN,3528266385259712,dki,"Jamalia Zulkarnain, S.Gz",F,1988,4B,Stasiun Manggarai - UI,0,B05874P,Warga,-6.273295,106.84656,28,4/3/2023 5:23,B05259P,SMAN 109,-6.344687,106.83351,44,4/3/2023 6:17,3500,Adult,4/3/2023,Monday,5
JRBW741X3T33KW,4199450082632933049,brizzi,"Nadine Andriani, S.IP",M,1974,7C,Cibubur - BKN,0,B00248P,Cibubur Junction,-6.368735,106.89366,0,4/3/2023 5:40,P00016,BKN,-6.257751,106.87,1,4/3/2023 6:11,3500,Elderly,4/3/2023,Monday,5
PNHJ396O9J75XG,4450080570279470,dki,"Ani Wasita, M.Pd",M,2004,8C,Kebayoran Lama - Tanah Abang,1,B01639P,Jln. Taman Kb. Sirih,-6.182295,106.81661,5,4/3/2023 5:12,B05264P,SMAN 24,-6.210598,106.79631,21,4/3/2023 5:35,3500,Teenager,4/3/2023,Monday,5
NHJE093C3H53DR,4306399682236699,dki,dr. Raharja Prastuti,M,1991,JAK.85,Bintara - Cipinang Indah,1,B04097P,Sbr. Minimarket Pondok Kelapa,-6.228599,106.93531,32,4/3/2023 6:20,B02463P,Minimarket Pondok Kopi,-6.218369,106.93956,39,4/3/2023 6:47,0,Adult,4/3/2023,Monday,6
OVAQ760H7C61IE,4.94678E+12,online,Wirda Yuliarti,M,1990,5,Matraman Baru - Ancol,0,P00224,Slamet Riyadi,-6.208533,106.85929,1,4/3/2023 5:00,P00021,Budi Utomo,-6.166063,106.83906,9,4/3/2023 5:33,3500,Adult,4/3/2023,Monday,5
TFBA876H9L48DY,3575787320226609,dki,"KH. Argono Nashiruddin, S.Gz",M,1988,11N,Rusun Cipinang Muara - Jatinegara,0,B00922P,Jln. Bekasi Timur VI,-6.214956,106.87866,9,4/3/2023 5:06,B02603P,Ps. Enjo 1,-6.215023,106.87779,10,4/3/2023 5:39,0,Adult,4/3/2023,Monday,5
CXLY791F0A96CY,5125406223322395,dki,"drg. Usyi Halimah, S.E.",F,2004,JAK.10,Tanah Abang - Kota,1,B03278P,Rusun Karang Anyar,-6.153256,106.82748,20,4/3/2023 6:33,B00086P,AURI Jatibaru,-6.182985,106.81407,40,4/3/2023 7:24,0,Teenager,4/3/2023,Monday,6
FZGD727V6X43JZ,3507107976417837,dki,Gatra Rahayu,M,1946,6V,Ragunan - Gelora Bung Karno,0,P00053,Duren Tiga,-6.252377,106.82697,8,4/3/2023 5:14,P00133,Masjid Agung,-6.236483,106.79845,13,4/3/2023 5:49,3500,Elderly,4/3/2023,Monday,5
DKJG081O7Q37WJ,4203562511038947968,brizzi,drg. Tantri Situmorang,F,1983,12,Tanjung Priok - Pluit,1,P00076,Gunung Sahari Mangga Dua,-6.136817,106.83237,8,4/3/2023 6:27,P00171,Permai Koja Arah Utara,-6.11413,106.89309,18,4/3/2023 7:15,3500,Adult,4/3/2023,Monday,6
ZJTC474A5Y97DB,4.88039E+12,online,"Elvin Saragih, S.Ked",F,1991,JAK.36,Cilangkap - Cililitan,1,B02834P,Pintu 3 TMII,-6.305153,106.88853,12,4/3/2023 5:32,B04977P,Simpang Mabes Hankam Raya Ceger,-6.306299,106.88855,13,4/3/2023 5:55,0,Adult,4/3/2023,Monday,5
VOOO363I4Q70OI,1.8001E+14,emoney,Elvina Hardiansyah,F,1991,2E,Rusun Rawa Bebek - Kodamar,1,B01901P,Kelapa Gading Utama,-6.176481,106.89487,4,4/3/2023 6:19,B06654P,Walikota Jakarta Timur 1,-6.212327,106.94515,23,4/3/2023 6:58,0,Adult,4/3/2023,Monday,6
ESRV660T4A87LG,3.72168E+14,emoney,"KH. Cager Najmudin, S.IP",M,1976,JAK.115,Term. Tj. Priok - Pegangsaan II IGI,1,B06616P,Sbr. SPBU Tugu Selatan,-6.13436,106.91575,21,4/3/2023 6:43,B05217P,Simpang Waru Kramat Jaya,-6.118678,106.91659,29,4/3/2023 7:07,0,Elderly,4/3/2023,Monday,6
EPTW774I8X04SL,4894146910205774,dki,"Baktianto Suartini, S.I.Kom",M,2002,JAK.14,Tanah Abang - Meruya,1,B04192P,Sbr. Perum Qoriyah Toyibah,-6.19777,106.75877,15,4/3/2023 5:02,B01586P,Jln. Sitrun,-6.197192,106.76696,19,4/3/2023 5:44,0,Teenager,4/3/2023,Monday,5
DRWG144J1O73RK,3.77951E+14,emoney,Keisha Prayoga,F,1982,JAK.20,Cawang UKI - Lubang Buaya,0,B02777P,Pertigaan Jengki Raya,-6.255038,106.87911,4,4/3/2023 6:32,B05244P,SMA Angkasa 2,-6.276218,106.88766,28,4/3/2023 7:13,0,Adult,4/3/2023,Monday,6
BKKY164U1O32AK,4974804949914047,dki,Gangsar Siregar,M,1996,2A,Pulo Gadung - Rawa Buaya via Balai Kota,1,P00195,Pulo Mas,-6.174736,106.89277,22,4/3/2023 6:11,P00192,Pulo Gadung 1,-6.183239,106.90907,24,4/3/2023 6:33,3500,Adult,4/3/2023,Monday,6
FUMU752I1C08HI,5.60124E+11,flazz,"Harjaya Lazuardi, S.E.",F,1973,JAK.07,Tanah Abang - Grogol via Tawakal,1,B02505P,Museum Textile,-6.188656,106.80954,29,4/3/2023 6:35,P00083,Jak Lingko Tanah Abang,-6.185496,106.81105,31,4/3/2023 7:24,0,Elderly,4/3/2023,Monday,6
GTMQ047C5K28AQ,6.76202E+11,flazz,"Dr. Ilyas Lestari, M.Ak",F,1991,JAK.41,Kampung Melayu - Pulo Gadung,0,B03590P,Sbr. Gereja Kristen Jawa,-6.2014,106.88588,28,4/3/2023 6:28,B05479P,St. LRT Velodrome 3,-6.19151,106.89108,37,4/3/2023 7:00,0,Adult,4/3/2023,Monday,6
FDNY628B9V97MV,4.12212E+12,online,"Cahyono Firmansyah, S.Pd",M,1992,M10,PGC 2 - Tanjung Priok,1,P00042,Cipinang Kebon Nanas,-6.231659,106.87637,16,4/3/2023 5:13,P00178,PGC 2,-6.2619,106.8657,21,4/3/2023 5:58,3500,Adult,4/3/2023,Monday,5
SRLS290P0Y95NP,1.80075E+14,emoney,"Dr. Laswi Usamah, S.Ked",F,1959,7Q,Blok M - PGC,1,B05899P,Wolter Monginsidi,-6.238799,106.81376,26,4/3/2023 6:12,B01437P,Jln. Palatehan,-6.240057,106.800758,31,4/3/2023 6:42,3500,Elderly,4/3/2023,Monday,6
HXUH313N2A98AI,3.4092E+14,emoney,Niyaga Habibi,F,2006,JAK.86,Term. Rawamangun - Term. Manggarai,1,B06560P,Kel. Rawamangun,-6.199099,106.8808,19,4/3/2023 5:06,B03064P,Puskesmas Rawamangun,-6.197034,106.88839,24,4/3/2023 5:46,0,Teenager,4/3/2023,Monday,5
ZSFB694B8Z63VI,4941966320527194737,brizzi,Widya Nuraini,F,1994,M3,Kalideres - Bundaran HI via Veteran,1,P00237,Sumur Bor,-6.153046,106.71929,2,4/3/2023 6:15,P00074,Grogol 1,-6.166824,106.78971,10,4/3/2023 6:47,3500,Adult,4/3/2023,Monday,6
TSLR223W4W45OA,3.70311E+14,emoney,Putu Sihombing,M,1995,8A,Jelambar - Juanda,0,P00176,Petojo,-6.169984,106.81698,5,4/3/2023 6:54,P00097,Juanda,-6.168048,106.83089,7,4/3/2023 7:24,3500,Adult,4/3/2023,Monday,6
IMBZ752A4M49RR,4238644242805860,dki,"H. Yahya Handayani, S.I.Kom",F,1994,1E,Pondok Labu - Blok M,0,B03626P,Sbr. ITC Fatmawati,-6.26343,106.7969,16,4/3/2023 6:29,B02860P,Plaza Blok M,-6.244978,106.79752,20,4/3/2023 7:16,3500,Adult,4/3/2023,Monday,6
MGKL991J8F92EL,4719371541269014,dki,Nasab Megantara,F,1997,3A,Rusun Pesakih - Kalideres,1,B01798P,Kalideres 1,-6.154249,106.70544,0,4/3/2023 6:43,B02760P,Pertamina Kalideres Daan Mogot,-6.15571,106.70927,2,4/3/2023 7:20,0,Adult,4/3/2023,Monday,6
IWEH403G6J82OS,3.04283E+13,bni,Estiawan Hastuti,M,2008,M7B,BKN - Blok M,1,B02114P,Lapangan Blok S,-6.237011,106.81421,6,4/3/2023 5:20,B00290P,Dammara,-6.25419,106.83146,18,4/3/2023 6:08,3500,Teenager,4/3/2023,Monday,5
RNAS183Z1Z12QM,3.40632E+14,emoney,Elisa Samosir,F,1996,5D,PGC 1 - Ancol,1,P00297,BNN LRT,-6.245863,106.871143,19,4/3/2023 6:12,P00178,PGC 2,-6.2619,106.8657,22,4/3/2023 6:51,3500,Adult,4/3/2023,Monday,6
VPSY493S9U39DR,4.0097E+12,online,Luwar Prabowo,M,1966,JAK.07,Tanah Abang - Grogol via Tawakal,0,B01293P,Jln. Kota Bambu Raya,-6.186802,106.80783,23,4/3/2023 5:54,B01919P,Kel. Jati Pulo,-6.175757,106.80318,35,4/3/2023 6:44,0,Elderly,4/3/2023,Monday,5
OASG298R9R39YK,2240842022789573,dki,Hafshah Laksmiwati,F,1999,1M,Meruya - Blok M,0,B01012P,Jln. Cipulir 1,-6.237267,106.7754,32,4/3/2023 6:35,P00045,CSW 2,-6.239861,106.79783,40,4/3/2023 7:34,3500,Teenager,4/3/2023,Monday,6
YMGM222A1P05IS,6011737385609178,dki,Darimin Mardhiyah,F,1981,2E,Rusun Rawa Bebek - Kodamar,0,B06665P,Pengadilan Negeri Jaktim 2,-6.212604,106.94082,3,4/3/2023 5:47,B05200P,Simpang Tiga 1,-6.210708,106.93903,6,4/3/2023 6:10,0,Adult,4/3/2023,Monday,5
NPIQ538R0G28HS,4.94898E+12,online,Balapati Gunarto,M,1977,9F,Rusun Tambora - Pluit,0,P00090,Jembatan Dua,-6.143279,106.79352,5,4/3/2023 5:49,P00181,Pluit,-6.115795,106.79037,8,4/3/2023 6:36,0,Elderly,4/3/2023,Monday,5
KMGZ282X0W07TF,4.96401E+12,online,Cahyono Mustofa,M,1984,11Q,Kampung Melayu - Pulo Gebang via BKT,1,B02615P,Ps. Inpres Cipinang Besar,-6.22645,106.88078,5,4/3/2023 5:35,B05581P,Taman Buaran Indah,-6.216979,106.92356,22,4/3/2023 6:15,3500,Adult,4/3/2023,Monday,5
KAGY982E0G63WU,6542837703080439,dki,Aurora Nasyiah,M,1991,M4,Pulo Gadung 2 - Dukuh Atas 2,1,P00269,Velodrome,-6.193468,106.8883,5,4/3/2023 6:32,P00052,Dukuh Atas 2,-6.203276,106.82377,15,4/3/2023 7:20,3500,Adult,4/3/2023,Monday,6
BUDJ602J8I77KB,2251303901446716,dki,Zelda Kuswoyo,M,2002,9H,Blok M - Universitas Indonesia,1,B05408P,SPBU Jln. Guru,-6.318164,106.83745,35,4/3/2023 5:59,B05266P,SMAN 38,-6.336201,106.83579,41,4/3/2023 6:26,3500,Teenager,4/3/2023,Monday,5
KLGQ685S6S27LR,5.65432E+11,flazz,"Azalea Setiawan, S.E.",F,2007,10D,Kampung Rambutan - Tanjung Priok,0,P00036,Cempaka Putih,-6.174207,106.87642,8,4/3/2023 5:36,P00153,Pasar Induk Kramat Jati,-6.294215,106.87203,13,4/3/2023 6:01,3500,Teenager,4/3/2023,Monday,5
FTGZ177C9F39DV,3548815673143131,dki,"Dr. Luthfi Sihombing, M.TI.",F,1998,13D,Puri Beta - Ragunan,1,P00053,Duren Tiga,-6.252377,106.82697,8,4/3/2023 6:54,P00106,Kebayoran Lama,-6.23834,106.77752,16,4/3/2023 7:28,3500,Teenager,4/3/2023,Monday,6
WWNZ239E2U71YZ,4705243679928131,dki,"dr. Laswi Pranowo, S.Pd",F,2012,5N,Kampung Melayu - Ragunan,1,B01846P,Kav Polri Blok E Jagakarsa,-6.314309,106.81633,11,4/3/2023 6:04,B03752P,Sbr. Jln. Kemang Timur XVII,-6.268951,106.82394,32,4/3/2023 6:42,3500,Child,4/3/2023,Monday,6
FIFR189E4T94CM,2.13149E+14,emoney,Kambali Mandasari,F,2005,JAK.49,Lebak Bulus - Cipulir,0,B01397P,Jln. Metro Duta 1,-6.283107,106.78028,47,4/3/2023 5:49,B06650P,Jln. Lebak Bulus Raya,-6.289748,106.770854,51,4/3/2023 6:36,0,Teenager,4/3/2023,Monday,5
OQPW261C9P13AZ,2.13127E+14,emoney,Viktor Zulkarnain,M,1987,JIS3,Harmoni - Jakarta International Stadium,1,P00161,Pecenongan,-6.16771,106.82819,6,4/3/2023 5:53,B05550P,Sunter Icon,-6.135417,106.85589,12,4/3/2023 6:44,3500,Adult,4/3/2023,Monday,5
MMPM755Y9P33YQ,3585765705663958,dki,Ibun Kusumo,F,1967,9D,Pasar Minggu - Tanah Abang,0,B00101P,Balai Kartini,-6.234791,106.82457,22,4/3/2023 5:48,B02532P,Nifarro Park,-6.263007,106.84332,36,4/3/2023 6:15,3500,Elderly,4/3/2023,Monday,5
VIEN644M4Y22JQ,6.30487E+11,flazz,"H. Aswani Megantara, M.M.",M,2008,1P,Senen - Blok M,1,B01969P,Kementerian Pariwisata,-6.1795,106.82255,19,4/3/2023 5:07,B02476P,Monas 2,-6.175999,106.82311,21,4/3/2023 6:01,3500,Teenager,4/3/2023,Monday,5
MCRU709P0B56NX,4326140619726764858,brizzi,Murti Kurniawan,M,2010,6T,Pasar Minggu - Velbak,0,B05210P,Simpang Tunda Bara TB Simatupang,-6.292612,106.7987,17,4/3/2023 5:29,B04790P,Simpang Darmawangsa X,-6.257555,106.80048,32,4/3/2023 6:09,3500,Teenager,4/3/2023,Monday,5
ZWFT415T9A11PB,3503950365035536,dki,Artanto Manullang,M,1987,JAK.26,Rawamangun - Duren Sawit,0,B00562P,Gg. Subuh,-6.211257,106.89058,32,4/3/2023 6:49,B04776P,Simpang Cipinang Kebembem 1,-6.207671,106.88522,40,4/3/2023 7:40,0,Adult,4/3/2023,Monday,6
QKHF317K0M20FY,6581936160714795,dki,Puti Siregar,M,1976,11P,Rusun Pondok Bambu - Walikota Jakarta Timur,0,B03289P,Rusun Pondok Bambu,-6.241583,106.91085,0,4/3/2023 6:07,B02307P,Masjid Jami Al Barkah 1,-6.229411,106.91212,5,4/3/2023 6:40,0,Elderly,4/3/2023,Monday,6
HJVJ441W7K25YC,3.0472E+13,bni,"Gamblang Pradipta, M.Farm",M,2004,5F,Kampung Melayu - Tanah Abang,0,B05423P,Viva Futsal,-6.218724,106.81944,17,4/3/2023 6:47,B01974P,Kesatrian Kowal Cut Nyak Dhien,-6.194307,106.81436,24,4/3/2023 7:46,3500,Teenager,4/3/2023,Monday,6
DCSF768M9T15VI,6011526887160594,dki,Rina Saragih,M,1984,JAK.73,Jambore Cibubur - Pasar Rebo,1,B00606P,Gelanggang Remaja Ciracas,-6.33946,106.88226,20,4/3/2023 5:27,B01020P,Jln. Dahlia KDW,-6.348905,106.88437,53,4/3/2023 6:06,0,Adult,4/3/2023,Monday,5
QWZD161N6O38NX,3.01641E+13,bni,Daliono Adriansyah,F,2012,12,Tanjung Priok - Pluit,0,P00131,Mangga Dua,-6.136148,106.82597,13,4/3/2023 6:27,P00098,Kali Besar Barat,-6.135355,106.81143,15,4/3/2023 7:23,3500,Child,4/3/2023,Monday,6
FCGU527E9L73OT,3592453519647910,dki,"Drs. Iriana Lazuardi, S.Pt",F,1981,JAK.32,Lebak Bulus - Petukangan,1,B04560P,Sbr. TK Tunas Harapan,-6.232157,106.75153,12,4/3/2023 5:07,B05135P,Simpang Sabar Raya Petukangan 2,-6.236966,106.7526,19,4/3/2023 6:02,0,Adult,4/3/2023,Monday,5
EXXT338K3R42NW,6592322056148025,dki,H. Jagaraga Prastuti,F,1967,JAK.50,Kalideres - Puri Kembangan,0,B05499P,St. Rawa Buaya,-6.163471,106.72374,31,4/3/2023 6:25,B02939P,Pool Blue Bird Puri 2,-6.160742,106.72685,34,4/3/2023 6:57,0,Elderly,4/3/2023,Monday,6
DMOC676Z0X94JW,5.86818E+11,flazz,"KH. Paiman Maheswara, S.I.Kom",M,1969,7D,Pancoran - Kampung Rambutan,0,P00018,BNN Arah Barat,-6.24651,106.87318,8,4/3/2023 5:05,P00145,Pancoran Tugu Arah Barat,-6.2433,106.84388,13,4/3/2023 5:55,3500,Elderly,4/3/2023,Monday,5
SIPU776W8H61ST,4174057702390453,dki,Dr. Juli Megantara,M,1984,2P,Gondangdia - Senen,1,B00285P,Cut Meutia,-6.187542,106.83294,25,4/3/2023 6:19,B06053P,Selatan St. Gondangdia,-6.187059,106.8329,26,4/3/2023 6:56,3500,Adult,4/3/2023,Monday,6
MKEZ057X9X58IV,1.80006E+14,emoney,Gandi Salahudin,F,1990,JAK.29,Tanjung Priok - Sukapura,1,B03211P,RSUD Koja,-6.108205,106.89982,7,4/3/2023 6:52,B05577P,Taman Barito Sembar,-6.132105,106.92023,32,4/3/2023 7:25,0,Adult,4/3/2023,Monday,6
CGLW420M1F93GK,2720556419423963,dki,Devi Pangestu,M,1994,3C,Rusun Kapuk Muara - Penjaringan,0,B03277P,Rusun Kapuk Muara,-6.135667,106.76299,0,4/3/2023 5:11,P00170,Penjaringan,-6.126306,106.79203,1,4/3/2023 5:38,0,Adult,4/3/2023,Monday,5
WFVC738E7S60SH,3540286623681182,dki,"Karimah Pangestu, S.Kom",M,1968,JAK.48A,Stasiun Tebet - Rusun Karet Tengsin,1,B05695P,Telkom Tebet,-6.224064,106.8516,21,4/3/2023 5:24,B02320P,Masjid Jami Al Mamur Bukit Duri,-6.225059,106.85606,23,4/3/2023 5:54,0,Elderly,4/3/2023,Monday,5
GDBJ736T1W03FP,5.02098E+11,flazz,"Tgk. Talia Mangunsong, S.E.I",M,1979,6V,Ragunan - Gelora Bung Karno,1,P00228,SMK 57,-6.290967,106.82365,14,4/3/2023 6:29,P00048,Departemen Pertanian,-6.294641,106.82213,15,4/3/2023 7:06,3500,Adult,4/3/2023,Monday,6
YZIR959B9M08IW,4997693930906134609,brizzi,"Cahyo Hutagalung, S.Pt",M,1989,JAK.06,Kampung Rambutan - Pondok Gede,0,B02234P,Masjid Al Barokah 1,-6.301819,106.91382,25,4/3/2023 5:33,B03795P,Sbr. Jln. Mini II,-6.308966,106.90774,37,4/3/2023 6:15,0,Adult,4/3/2023,Monday,5
GKYF771L7C08EG,3562084958981605,dki,Cakrawangsa Permadi,F,2010,JAK.45,Lebak Bulus - Ragunan,1,B02876P,PLN Corporate University 2,-6.300935,106.82136,3,4/3/2023 6:25,B04429P,Sbr. SMAN 66,-6.306177,106.80368,24,4/3/2023 7:25,0,Teenager,4/3/2023,Monday,6
IPWW448F5S36ZT,6570035474604116,dki,Hasta Anggriawan,F,2000,8K,Batusari - Grogol,1,B02636P,Ps. Kopro 2,-6.177343,106.78369,10,4/3/2023 6:25,B04930P,Simpang Kemanggisan Ilir Raya,-6.193066,106.784647,15,4/3/2023 7:21,3500,Teenager,4/3/2023,Monday,6
BLXH744N3M26SP,4230327309726801,dki,Gandi Suartini,F,1988,JAK.42,Kampung Melayu - Pondok Kelapa,1,B02016P,Komplek Abadi 2,-6.229722,106.90813,14,4/3/2023 6:18,B01380P,Jln. Melati Bhakti,-6.229557,106.9015,16,4/3/2023 6:46,0,Adult,4/3/2023,Monday,6
MOGN672F9T55KC,5552327039791635,dki,"Hj. Vera Narpati, S.Kom",M,1989,7C,Cibubur - BKN,1,P00016,BKN,-6.257751,106.87,0,4/3/2023 6:22,B00248P,Cibubur Junction,-6.368735,106.89366,2,4/3/2023 7:14,3500,Adult,4/3/2023,Monday,6
LLXC166B0Z26RJ,4874486601260594074,brizzi,Cemani Lazuardi,F,1990,JAK.46,Pasar Minggu - Jagakarsa,0,B02298P,Masjid Darussalam Cipedak,-6.346656,106.81014,5,4/3/2023 6:33,B05219P,Simpang Warung Sila Rindang,-6.345472,106.81167,6,4/3/2023 7:17,0,Adult,4/3/2023,Monday,6
RGMW432Q3X94EA,4628562596639925,dki,Tira Saptono,M,2010,S21,Ciputat - CSW,0,B05904P,Yado I,-6.253745,106.79098,24,4/3/2023 6:04,B00053P,Antena II,-6.25033,106.79163,26,4/3/2023 6:57,3500,Teenager,4/3/2023,Monday,6
GQHG345P9W47JC,6521040134321754,dki,"Sutan Rosman Laksita, S.I.Kom",F,1994,4,Pulo Gadung 2 - Tosari,0,P00193,Pulo Gadung 2,-6.183098,106.90872,0,4/3/2023 5:56,P00189,Pramuka LIA,-6.192238,106.86858,6,4/3/2023 6:35,3500,Adult,4/3/2023,Monday,5
QMZT543A2I81UK,4729302648273942756,brizzi,Unjani Usamah,F,2003,M12,Sunter Boulevard Barat - Penjaringan,0,P00131,Mangga Dua,-6.136148,106.82597,8,4/3/2023 5:17,P00008,Bandengan Selatan,-6.136318,106.80347,11,4/3/2023 6:08,3500,Teenager,4/3/2023,Monday,5
ROGF733S4J88ME,3.70997E+14,emoney,KH. Karma Pudjiastuti,M,1972,1N,Tanah Abang - Blok M,0,B03312P,Sari Pan Pacific,-6.185037,106.82325,8,4/3/2023 5:14,B00360P,Flyover Karet 2,-6.214808,106.81847,17,4/3/2023 5:58,3500,Elderly,4/3/2023,Monday,5
TNYA703K8B81VC,2.13129E+14,emoney,Tgk. Cagak Zulaika,F,1993,D32,Cinere - Bundaran Senayan,0,B00611P,Gelora Bung Karno 1,-6.224642,106.8056,12,4/3/2023 5:02,B00221P,Bundaran Senayan 1,-6.227445,106.80187,14,4/3/2023 5:26,20000,Adult,4/3/2023,Monday,5
DBGR006W5T22KJ,3516006502484403,dki,Marsito Anggriawan,M,1992,M7,Kampung Rambutan - Monas,0,P00010,Bank Indonesia Arah Utara,-6.182776,106.8228,26,4/3/2023 6:01,P00137,Monas,-6.176248,106.82286,27,4/3/2023 6:24,3500,Adult,4/3/2023,Monday,6
NRFL719G5S35TX,3.42523E+14,emoney,Dewi Gunawan,M,1975,JAK.27,Pulo Gebang - Rorotan,0,B02232P,Masjid Al Barkah 2,-6.184779,106.94595,17,4/3/2023 5:39,B00615P,Gempol Baru 2,-6.186351,106.9547,21,4/3/2023 6:12,0,Elderly,4/3/2023,Monday,5
RXHF248A6A23LD,6571636366239447,dki,Hamzah Zulaika,M,1986,JAK.18,Kalibata - Kuningan,0,B04417P,Sbr. SMA Islam As Syafiiyah 01,-6.220785,106.85332,34,4/3/2023 6:12,B03014P,Puri Imperium,-6.210463,106.83229,59,4/3/2023 7:08,0,Adult,4/3/2023,Monday,6
EEYC506C6E43HD,2.13106E+14,emoney,drg. Zamira Nurdiyanti,M,1979,13,Ciledug - Tendean,0,P00106,Kebayoran Lama,-6.23834,106.77752,7,4/3/2023 5:44,P00259,Tirtayasa,-6.239207,106.80777,11,4/3/2023 6:36,3500,Adult,4/3/2023,Monday,5
GFGT903H7Y70XU,4451666937375088290,brizzi,drg. Luluh Pradipta,F,2004,JAK.51,Taman Kota - Budi Luhur,0,B04552P,Sbr. TK Al Husna Petukangan Utara,-6.231887,106.74517,3,4/3/2023 6:06,B04932P,Simpang Kembangan Raya 2,-6.176148,106.74794,42,4/3/2023 6:56,0,Teenager,4/3/2023,Monday,6
AWVN262I2O28QV,4583562097218227517,brizzi,"Daliono Maheswara, S.Pd",F,2012,2F,Rusun Cakung Barat - Pulo Gadung,0,P00028,Cakung United Tractors,-6.18324,106.92998,3,4/3/2023 6:13,B03298P,Rusun Tipar Cakung,-6.171493,106.93731,5,4/3/2023 6:42,0,Child,4/3/2023,Monday,6
HVGS687T2A21US,1.80075E+14,emoney,"Dt. Karsa Nasyidah, M.Kom.",F,1990,JAK.48A,Stasiun Tebet - Rusun Karet Tengsin,1,B00115P,UPT. LLHD 2,-6.225501,106.83489,17,4/3/2023 6:27,B05695P,Telkom Tebet,-6.224064,106.8516,21,4/3/2023 7:13,0,Adult,4/3/2023,Monday,6
WFHK459L6B02NM,4157264487056687746,brizzi,Baktiono Prakasa,F,1981,6U,Blok M - Pasar Minggu,0,B05099P,Simpang Rawa Barat,-6.238408,106.81489,7,4/3/2023 5:46,B06291P,Jati Padang 2,-6.285637,106.82632,21,4/3/2023 6:36,3500,Adult,4/3/2023,Monday,5
POBP212X0J15IC,4.30741E+12,online,Puspa Sihombing,F,2012,9D,Pasar Minggu - Tanah Abang,1,P00056,Explorer Tanah Abang,-6.184305,106.81158,44,4/3/2023 5:56,B01787P,JPO Blok G,-6.188861,106.81135,47,4/3/2023 6:30,3500,Child,4/3/2023,Monday,5
TVHS564M5J08TK,4607578492019777,dki,Mutia Latupono,M,2002,11D,Pulo Gebang - Pulo Gadung 2 via PIK,1,B02977P,Pospol PIK Penggilingan,-6.203442,106.93258,24,4/3/2023 5:29,P00270,Walikota Jakarta Timur,-6.21254,106.94537,30,4/3/2023 5:52,3500,Teenager,4/3/2023,Monday,5
KSNZ654M4P15HI,4961293020468542,dki,"Wawan Sudiati, S.IP",F,2007,JAK.51,Taman Kota - Budi Luhur,0,B00879P,Jln. B Basmol Raya,-6.161701,106.75176,47,4/3/2023 5:05,B02798P,Perum Taman Kota 2,-6.160549,106.75615,49,4/3/2023 6:01,0,Teenager,4/3/2023,Monday,5
SJJL364K2V61XY,3.05467E+13,bni,"Gangsa Wijayanti, M.Kom.",M,1990,1E,Pondok Labu - Blok M,0,B05311P,SMKN 28,-6.284944,106.79578,10,4/3/2023 6:48,B01610P,Jln. Sungai Sambas VI,-6.246441,106.7978,19,4/3/2023 7:38,3500,Adult,4/3/2023,Monday,6
CRMV378D4B36HU,4490538004709364,dki,Ajeng Pradipta,M,1975,10,Tanjung Priok - PGC 2,1,P00232,Stasiun Jatinegara Arah Utara,-6.21542,106.8742,7,4/3/2023 5:06,P00171,Permai Koja Arah Utara,-6.11413,106.89309,19,4/3/2023 5:59,3500,Elderly,4/3/2023,Monday,5
OHXC601I4F59SY,5.01828E+11,flazz,"Unjani Damanik, S.T.",M,1975,M1H,Tanah Abang - St. Gondangdia,1,B04101P,Sbr. MNC Center,-6.182744,106.83084,10,4/3/2023 5:02,B05445P,St. Gondangdia 2,-6.185054,106.8323,11,4/3/2023 6:01,3500,Elderly,4/3/2023,Monday,5
QTBL677E5W49WE,4.69716E+12,online,Daliman Lailasari,M,1986,JAK.54,Grogol - Benhil,0,B02079P,Koramil Jln. Brigjen Katamso,-6.189138,106.80508,13,4/3/2023 6:50,B05524P,STIE IBEK,-6.173256,106.7977,29,4/3/2023 7:45,0,Adult,4/3/2023,Monday,6
KQPO843J0B80NG,4526942453399131,dki,Talia Hidayanto,M,2005,2B,Harapan Indah - ASMI,1,P00028,Cakung United Tractors,-6.18324,106.92998,8,4/3/2023 5:40,P00157,Pasar Modern Harapan Indah,-6.168544,106.97431,28,4/3/2023 6:37,3500,Teenager,4/3/2023,Monday,5
SKVT945J6Y75FY,3587585995659591,dki,"Ir. Maimunah Sudiati, S.Pt",F,1982,JAK.110A,Rusun Marunda - Terminal Terpadu Pulo Gebang,0,B05937P,YPI Asyaadah,-6.191129,106.94382,52,4/3/2023 6:56,B00415P,Gg. Barokah Lingkar Timur,-6.19658,106.94405,56,4/3/2023 7:38,0,Adult,4/3/2023,Monday,6
UILF627K6N98PO,4538778656278748,dki,"KH. Indra Haryanti, S.Gz",M,1969,JAK.03,Lebak Bulus - Andara,1,B05950P,Jln. Andara Raya,-6.327861,106.80061,0,4/3/2023 6:18,B05394P,SMPN 85,-6.31244,106.79533,5,4/3/2023 7:08,0,Elderly,4/3/2023,Monday,6
TJGP315V9J81LK,6011206561670347,dki,Suci Hutagalung,F,1971,JAK.36,Cilangkap - Cililitan,0,B01027P,Jln. Damai PBSI Cilangkap,-6.332964,106.89167,12,4/3/2023 5:44,B03173P,RS Restu Kasih,-6.26606,106.86598,43,4/3/2023 6:11,0,Elderly,4/3/2023,Monday,5
BBSH420G4S68PT,3549182300492467,dki,Kajen Andriani,M,1984,M11,Pulo Gebang - Pulo Gadung 2,1,P00158,Pasar Pulo Gadung,-6.187434,106.90591,0,4/3/2023 6:34,P00059,Flyover Radin Inten,-6.215982,106.92438,4,4/3/2023 7:30,3500,Adult,4/3/2023,Monday,6
RUQE477F7N96ZC,3504787672864607,dki,drg. Cecep Rahimah,M,1982,1Q,Rempoa - Blok M,1,B02374P,Masjid Pondok Indah 2,-6.261469,106.78201,15,4/3/2023 5:55,B03132P,RS Dr Suyoto,-6.267779,106.76599,24,4/3/2023 6:39,3500,Adult,4/3/2023,Monday,5
XGNH505G1W99FE,2295962091596974,dki,Bakidin Putra,F,1996,JAK.50,Kalideres - Puri Kembangan,0,B01529P,Jln. Puri Lingkar Dalam,-6.184763,106.73503,56,4/3/2023 5:21,B03015P,Puri Kembangan,-6.188874,106.73514,57,4/3/2023 6:21,0,Adult,4/3/2023,Monday,5
AYMT524D3D78QA,3.44819E+14,emoney,Wahyu Wibisono,F,1985,10K,Tanjung Priok - Senen via Taman BMW,0,B02627P,Ps. Kemayoran,-6.161032,106.8549,22,4/3/2023 6:01,B03201P,RSPAD 3,-6.175462,106.83922,36,4/3/2023 6:37,3500,Adult,4/3/2023,Monday,6
WSXP289M9W76IQ,3.48972E+14,emoney,"dr. Restu Fujiati, S.Kom",M,1967,6N,Ragunan - Blok M via Kemang,0,P00199,Ragunan,-6.305769,106.81949,0,4/3/2023 6:08,B05538P,STPDN,-6.28439,106.81899,8,4/3/2023 6:42,3500,Elderly,4/3/2023,Monday,6
CUQC510B9I15AS,2714279979787895,dki,Ozy Winarno,F,2011,JAK.120,JIS - Terminal Muara Angke,1,B05324P,SMKN 56,-6.119094,106.79423,8,4/3/2023 6:44,B02564P,Pangeran Jayakarta 1,-6.137775,106.81766,20,4/3/2023 7:31,0,Teenager,4/3/2023,Monday,6
URTT063A4E83CL,4.92859E+12,online,Dartono Natsir,M,2006,5C,PGC - Juanda,0,P00007,Balai Kota,-6.180488,106.82646,17,4/3/2023 6:52,P00161,Pecenongan,-6.16771,106.82819,19,4/3/2023 7:30,3500,Teenager,4/3/2023,Monday,6
PTDK452M9A71XF,3.4237E+14,emoney,"Kartika Habibi, S.Psi",M,1975,6D,Stasiun Tebet - Karet via Underpass,0,B04505P,Sbr. Standard Chartered,-6.217407,106.81934,13,4/3/2023 5:13,B03396P,Kota Kasablanka,-6.224688,106.84246,20,4/3/2023 5:39,3500,Elderly,4/3/2023,Monday,5
KLJX380M8M22TJ,3561570507349808,dki,"KH. Oskar Megantara, S.I.Kom",F,2001,JAK.44,Andara - Stasiun Universitas Pancasila,1,B00045P,Andara Margasatwa 4,-6.312578,106.80356,35,4/3/2023 5:09,B00042P,Andara Margasatwa 1,-6.313471,106.80369,36,4/3/2023 5:33,0,Teenager,4/3/2023,Monday,5
ZDUV770Z2Q87OK,3559367200080515,dki,Cawisono Permadi,F,1987,6A,Ragunan - MH Thamrin via Kuningan,0,P00024,Buncit Indah,-6.274333,106.83029,5,4/3/2023 6:48,P00079,Imigrasi,-6.256977,106.82808,7,4/3/2023 7:19,3500,Adult,4/3/2023,Monday,6
QJRE855W7D09JQ,3.01368E+13,bni,Ian Prasasta,F,1990,4F,Pinang Ranti - Pulo Gadung,0,B03325P,SD Jatinegara Kaum,-6.19781,106.90496,46,4/3/2023 6:27,B02848P,Pintu Kawasan 2,-6.1896,106.90629,49,4/3/2023 6:49,3500,Adult,4/3/2023,Monday,6
TBLV662E6J10QL,3528429476454085,dki,Tgk. Gawati Hardiansyah,M,1976,1P,Senen - Blok M,1,B05624P,Taman Mataram,-6.232899,106.80053,2,4/3/2023 5:04,B03314P,MH Thamrin 2,-6.188238,106.82277,16,4/3/2023 5:37,3500,Elderly,4/3/2023,Monday,5
KSTU465X0F20TZ,4.57549E+12,online,Zalindra Rahmawati,M,1987,JAK.25,Kp. Rambutan - Kalisari,0,B03557P,Sbr. Gg. Rezeki Cijantung,-6.32655,106.85576,23,4/3/2023 6:18,B00423P,Gg. Bidan Baru,-6.327013,106.85027,29,4/3/2023 6:49,0,Adult,4/3/2023,Monday,6
OHDY707Y9C16GD,1.80032E+14,emoney,"R.A. Farhunnisa Firmansyah, M.Pd",F,1996,6B,Ragunan - MH Thamrin via Semanggi,1,P00261,Tosari,-6.196892,106.82309,2,4/3/2023 5:44,P00085,Jati Padang,-6.285431,106.82626,12,4/3/2023 6:15,3500,Adult,4/3/2023,Monday,5
CQBB230D3P59WR,3535601073732219,dki,R. Unggul Halimah,F,1986,JAK.64,Lenteng Agung - Aseli,1,B03899P,Sbr. Kec. Jagakarsa,-6.334583,106.8216,19,4/3/2023 5:43,B00868P,Jln. Aselih,-6.347277,106.79695,37,4/3/2023 6:37,0,Adult,4/3/2023,Monday,5
OLZA217B5B95DK,4371940047525876160,brizzi,Zelda Laksita,M,2009,JAK.30,Grogol - Meruya via Roxy,1,B04576P,Sbr. Univ. Mercu Buana,-6.210273,106.73786,11,4/3/2023 6:24,B05009P,Simpang Meruya Ilir 1,-6.196682,106.75517,28,4/3/2023 7:13,0,Teenager,4/3/2023,Monday,6
MNVR368P8Y89KY,2594772896759927,dki,R.A. Rahmi Firmansyah,M,1984,JAK.88,Terminal Tanjung Priok - Ancol Barat,1,B05993P,Polsek Pademangan,-6.12944,106.84317,14,4/3/2023 5:49,B06875P,Jln. R. E. Martadinata,-6.130036,106.83429,19,4/3/2023 6:24,0,Adult,4/3/2023,Monday,5
AVNB001A6G54LF,4798412351689028870,brizzi,Warsa Gunawan,F,1986,5B,Stasiun Tebet - BNN,0,P00015,Bidara Cina,-6.229724,106.86721,9,4/3/2023 5:40,P00297,BNN LRT,-6.245863,106.871143,12,4/3/2023 6:22,3500,Adult,4/3/2023,Monday,5
PPJQ978G0G75PN,3531178674835422,dki,"R. Sadina Sinaga, S.Psi",F,1992,JAK.16,Cililitan - Condet,0,B06791P,SDN 11 Batu Ampar,-6.284068,106.85835,16,4/3/2023 6:29,B02495P,Munggang 1,-6.276272,106.85299,25,4/3/2023 7:03,0,Adult,4/3/2023,Monday,6
IPRG491M6Z87AX,6.7617E+11,flazz,"Dt. Vinsen Budiyanto, S.H.",F,2009,3,Kalideres - Bundaran HI via Veteran,1,P00091,Jembatan Gantung,-6.155513,106.74946,8,4/3/2023 5:10,P00201,Rawa Buaya,-6.153908,106.72619,11,4/3/2023 5:58,3500,Teenager,4/3/2023,Monday,5
UFIY749J0P29PU,4106531301179023,dki,Jaya Narpati,M,2005,JAK.06,Kampung Rambutan - Pondok Gede,0,B02767P,Pertigaan Cedang 1,-6.301603,106.9125,24,4/3/2023 6:16,B02775P,Pertigaan H. Sadjim 3,-6.305788,106.91087,35,4/3/2023 6:48,0,Teenager,4/3/2023,Monday,6
GHEY769K9T55WF,4.28165E+12,online,Zelda Wibowo,M,1989,11D,Pulo Gebang - Pulo Gadung 2 via PIK,0,B00048P,Aneka PIK Penggilingan,-6.202636,106.92867,16,4/3/2023 5:05,B05823P,United Tractors 1,-6.18326,106.93243,28,4/3/2023 5:41,3500,Adult,4/3/2023,Monday,5
ARFI258Q0F23OZ,4.15019E+12,online,Lili Suryatmi,M,1968,JAK.85,Bintara - Cipinang Indah,1,B05634P,Taman Pangkalan Jati Kalimalang,-6.24599,106.9053,4,4/3/2023 5:26,B01677P,Jln. Teluk Mandar 2,-6.238944,106.91004,13,4/3/2023 5:59,0,Elderly,4/3/2023,Monday,5
QNXC164X2U58EZ,3537344445143314,dki,Unjani Mulyani,F,1987,M6,Ragunan - MH Thamrin,1,P00164,Pejaten,-6.278404,106.82972,4,4/3/2023 5:12,P00024,Buncit Indah,-6.274333,106.83029,5,4/3/2023 6:11,3500,Adult,4/3/2023,Monday,5
NYZR050S7R38IA,2245958200404051,dki,Tgk. Hamzah Hutagalung,M,1986,3C,Rusun Kapuk Muara - Penjaringan,0,B03277P,Rusun Kapuk Muara,-6.135667,106.76299,0,4/3/2023 5:45,P00170,Penjaringan,-6.126306,106.79203,1,4/3/2023 6:38,0,Adult,4/3/2023,Monday,5
QHMH875Y6Q27UT,6.30466E+11,flazz,Winda Puspita,M,1959,6Q,Dukuh Atas - Casablanca via Epicentrum Raya,0,B05739P,The Wave,-6.214587,106.83642,7,4/3/2023 5:05,B03396P,Kota Kasablanka,-6.224688,106.84246,11,4/3/2023 5:49,3500,Elderly,4/3/2023,Monday,5
TTXL446A9W44RL,4868766606269426510,brizzi,Paulin Nugroho,M,1984,JAK.39,Kalimalang - Duren Sawit,0,B01625P,Jln. Swakarsa IV Pondok Kelapa,-6.243335,106.94262,36,4/3/2023 5:21,B01984P,Klapa Village Pondok Kelapa,-6.238159,106.94153,41,4/3/2023 5:49,0,Adult,4/3/2023,Monday,5
BPBR752F7C53IF,6589314352421169,dki,"H. Rangga Santoso, S.Farm",M,1973,9A,PGC 2 - Grogol 2,1,P00297,BNN LRT,-6.245863,106.871143,15,4/3/2023 5:52,P00033,Cawang UKI,-6.250309,106.8736,17,4/3/2023 6:29,3500,Elderly,4/3/2023,Monday,5
PHTV056N8C52PU,4498767637558201,dki,"Zizi Santoso, M.Kom.",M,1970,M3,Kalideres - Bundaran HI via Veteran,0,P00074,Grogol 1,-6.166824,106.78971,6,4/3/2023 6:54,P00088,Jembatan Baru,-6.154831,106.73038,12,4/3/2023 7:33,3500,Elderly,4/3/2023,Monday,6
TKSP921A2W65VE,4860968417507585403,brizzi,Intan Usada,M,1992,JAK.26,Rawamangun - Duren Sawit,1,B05850P,Velodrome 1,-6.193624,106.88875,3,4/3/2023 5:24,B02070P,Komplek Wijaya Kusuma 1,-6.229588,106.90531,46,4/3/2023 6:19,0,Adult,4/3/2023,Monday,5
KBEP188H4P67SD,1.80098E+14,emoney,"Kamaria Megantara, S.IP",M,1997,9H,Blok M - Universitas Indonesia,1,B05680P,Tj. Mas Raya,-6.308428,106.8391,31,4/3/2023 6:23,B00491P,Gg. Kancil I Lenteng Agung,-6.316507,106.83774,34,4/3/2023 7:14,3500,Adult,4/3/2023,Monday,6
WFEC002K4T07YH,4907208153127941689,brizzi,Cemeti Padmasari,F,1993,7C,Cibubur - BKN,1,B00226P,Buperta Cibubur,-6.370321,106.89628,1,4/3/2023 6:46,B00248P,Cibubur Junction,-6.368735,106.89366,2,4/3/2023 7:23,3500,Adult,4/3/2023,Monday,6
CMYE649Q8Z38VZ,2296212953530805,dki,"Gamanto Maheswara, S.H.",F,1974,JAK.42,Kampung Melayu - Pondok Kelapa,1,B00354P,Flyover Jatinegara 1,-6.215301,106.87356,36,4/3/2023 6:49,B04170P,Sbr. Ps. Rawa Bening,-6.216795,106.87037,38,4/3/2023 7:17,0,Elderly,4/3/2023,Monday,6
SHAG754H9Q44CH,2552369444600479,dki,Nalar Winarno,F,1982,8C,Kebayoran Lama - Tanah Abang,1,P00083,Jak Lingko Tanah Abang,-6.185496,106.81105,0,4/3/2023 5:40,B02317P,Masjid Jami Al Makmur 1,-6.189195,106.81549,9,4/3/2023 6:14,3500,Adult,4/3/2023,Monday,5
BQST288C3S92JM,3563151380900971,dki,Indah Habibi,M,1979,8,Lebak Bulus - Pasar Baru via Tomang,1,P00172,Permata Hijau,-6.221427,106.78325,16,4/3/2023 5:19,P00128,Lebak Bulus,-6.289413,106.77415,23,4/3/2023 5:44,3500,Adult,4/3/2023,Monday,5
JONM954J8K77WR,4846285352667528,dki,Ilyas Rahimah,F,1984,JAK.21,Cililitan - Dwikora,0,B00561P,Gg. Siluman Cililitan Besar,-6.264959,106.8747,6,4/3/2023 6:32,B02959P,Pos Jaga Utama 2,-6.261242,106.88827,20,4/3/2023 7:15,0,Adult,4/3/2023,Monday,6
NTCC074Z8L53PM,6563524092020960,dki,Hendra Andriani,M,1992,11P,Rusun Pondok Bambu - Walikota Jakarta Timur,1,B00368P,Flyover Radin Inten 1,-6.216112,106.92439,8,4/3/2023 6:36,B03289P,Rusun Pondok Bambu,-6.241583,106.91085,22,4/3/2023 7:34,0,Adult,4/3/2023,Monday,6
VAHD368H7U79VK,4673419635061948,dki,Martaka Wijaya,M,1989,JAK.54,Grogol - Benhil,0,B03824P,Sbr. Jln. Rasamala Dalam,-6.174903,106.80482,24,4/3/2023 6:42,B03107P,Roxy Square 2,-6.167221,106.79975,32,4/3/2023 7:36,0,Adult,4/3/2023,Monday,6
IAQD128M6O74WF,4684647405560965,dki,Indra Laksmiwati,M,1987,JAK.43B,Tongtek - Tebet Eco Park (TEP) - Cililitan,1,B01794P,Kalibata City 1,-6.255951,106.85404,5,4/3/2023 6:35,B03889P,Sbr. Kalibata Square,-6.255574,106.85167,9,4/3/2023 7:31,0,Adult,4/3/2023,Monday,6
SQLU277L3R57BV,2.13115E+14,emoney,Estiono Simbolon,F,1994,JAK.80,Rawa Buaya - Rawa Kompeni,1,B06119P,Jln. Prima,-6.123869,106.71834,27,4/3/2023 5:42,B04437P,Sbr. SMAN 95,-6.126402,106.70406,34,4/3/2023 6:03,0,Adult,4/3/2023,Monday,5
MMUV993P5H61FT,4087795255830674,dki,Vera Saputra,M,1991,JAK.11,Tanah Abang - Kebayoran Lama,0,B00320P,DPP FPI,-6.194368,106.80536,15,4/3/2023 6:35,B01259P,Jln. Kemandoran VII Grogol Utara,-6.209631,106.78344,31,4/3/2023 7:00,0,Adult,4/3/2023,Monday,6
WEOO239D1H62HA,4309038731411054,dki,R. Viktor Winarno,F,1999,4E,Rusun Jatinegara Kaum - Pulo Gadung,0,B02274P,Masjid Assuada,-6.194327,106.90544,11,4/3/2023 6:14,B01779P,Jiep 2,-6.192554,106.90569,12,4/3/2023 6:42,0,Teenager,4/3/2023,Monday,6
PAMV537A8E68EY,3502800039632328,dki,Kamila Puspita,F,2003,6V,Ragunan - Gelora Bung Karno,1,P00071,Gelora Bung Karno,-6.224217,106.8058,0,4/3/2023 5:40,P00024,Buncit Indah,-6.274333,106.83029,11,4/3/2023 6:38,3500,Teenager,4/3/2023,Monday,5
DCYB552E0Y16EI,6515621790318925,dki,Iriana Riyanti,M,1996,JAK.50,Kalideres - Puri Kembangan,0,B00465P,Gg. H. Doel Bojong Raya,-6.167321,106.73423,45,4/3/2023 6:14,B03828P,Sbr. Jln. Ruby Kembangan Utara,-6.179903,106.73422,52,4/3/2023 7:06,0,Adult,4/3/2023,Monday,6
DHGY394H4G25GS,4.44543E+12,online,R.M. Langgeng Nashiruddin,F,2008,M4,Pulo Gadung 2 - Dukuh Atas 2,0,P00127,Layur,-6.193539,106.89909,3,4/3/2023 6:51,P00269,Velodrome,-6.193468,106.8883,5,4/3/2023 7:49,3500,Teenager,4/3/2023,Monday,6
YUGN100O2T57SU,5512989045494139,dki,Samsul Iswahyudi,F,2005,JAK.46,Pasar Minggu - Jagakarsa,0,B03717P,Sbr. Jln. H. Matasan,-6.317581,106.82484,16,4/3/2023 5:47,B01733P,Jatipadang Raya,-6.293986,106.82335,26,4/3/2023 6:28,0,Teenager,4/3/2023,Monday,5
ALON168P3C05ZF,4433768133150830,dki,Hendra Simbolon,M,1984,JAK.17,Senen - Pulo Gadung,0,B00083P,Atrium 1,-6.177759,106.8412,50,4/3/2023 5:42,B04647P,Sekolah Penabur Gunung Sahari,-6.170053,106.84024,53,4/3/2023 6:05,0,Adult,4/3/2023,Monday,5
URFT748O9V95AF,4389022563393310,dki,Titi Prasetya,F,2002,1P,Senen - Blok M,0,B05693P,Telkom Grapari,-6.18222,106.83297,11,4/3/2023 5:51,B05637P,Taman Patimura,-6.232872,106.80081,30,4/3/2023 6:30,3500,Teenager,4/3/2023,Monday,5
TLSO390F0H76CM,4.232E+12,online,Dalima Winarsih,F,2008,5F,Kampung Melayu - Tanah Abang,1,B02151P,London School,-6.205065,106.81662,8,4/3/2023 6:11,B01804P,Kampung Melayu Besar 2,-6.225314,106.86292,24,4/3/2023 6:55,3500,Teenager,4/3/2023,Monday,6
RZXY379Y2X13CE,6540672233441260,dki,"Emil Widiastuti, S.Gz",M,1998,JAK.11,Tanah Abang - Kebayoran Lama,0,B03368P,SDN Grogol Utara 03,-6.214998,106.7777,36,4/3/2023 5:40,B05455P,St. Kebayoran 2,-6.235723,106.78285,47,4/3/2023 6:20,0,Teenager,4/3/2023,Monday,5
FKUZ880E9L29GJ,1.8003E+14,emoney,Putri Handayani,F,2003,JAK.112,Terminal Tanah Merah - Pulo Gadung,1,B01310P,Jln. Kuning Tua,-6.164733,106.90996,19,4/3/2023 5:06,B00707P,Grii Kelapa Gading,-6.145063,106.90953,29,4/3/2023 5:31,0,Teenager,4/3/2023,Monday,5
SLWP469O6M81HY,4.57801E+12,online,Ir. Usman Megantara,F,1991,JAK.08,Roxy - Benhil,1,B01638P,Jln. Taman Jatibaru Timur,-6.182778,106.8129,25,4/3/2023 5:33,B00816P,ITC Roxy,-6.16737,106.80248,33,4/3/2023 5:58,0,Adult,4/3/2023,Monday,5
VLGY471E8K00HG,5.87538E+11,flazz,"Raisa Putra, M.Ak",F,1989,7D,Pancoran - Kampung Rambutan,1,B04290P,Sbr. RS Moh Ridwan Meuraksa,-6.294767,106.88167,4,4/3/2023 6:08,P00145,Pancoran Tugu Arah Barat,-6.2433,106.84388,14,4/3/2023 6:54,3500,Adult,4/3/2023,Monday,6
VSAA470S6I23OR,3560553042793780,dki,"Danu Pradipta, S.Pd",M,1977,JAK.112,Terminal Tanah Merah - Pulo Gadung,1,B04287P,Sbr. RS Mediros,-6.179204,106.90379,9,4/3/2023 6:20,B04878P,Simpang Jln. Tarian Raya Barat,-6.170599,106.9099,14,4/3/2023 6:54,0,Elderly,4/3/2023,Monday,6
GDTV032X0F93ZL,1.8006E+14,emoney,R. Sabrina Megantara,M,1997,11K,Rusun Komarudin - Penggilingan,0,P00270,Walikota Jakarta Timur,-6.21254,106.94537,1,4/3/2023 6:27,P00169,Penggilingan,-6.214132,106.93961,2,4/3/2023 7:06,0,Adult,4/3/2023,Monday,6
ZQLL825P5I12PM,4582951929146910,dki,H. Jarwadi Suartini,M,2002,JAK.11,Tanah Abang - Kebayoran Lama,1,B01335P,Jln. Madrasah II Sukabumi Selatan,-6.209608,106.78336,18,4/3/2023 5:03,B05102P,Simpang Rawa Belong Palmerah Barat,-6.20663,106.78342,20,4/3/2023 5:54,0,Teenager,4/3/2023,Monday,5
WCIW036H9V52TA,1.80006E+14,emoney,R.A. Puti Permadi,M,1987,9D,Pasar Minggu - Tanah Abang,0,B02541P,Otorita Asahan,-6.223991,106.8159,16,4/3/2023 5:06,B02470P,Mja Rawa Bambu,-6.292069,106.84179,44,4/3/2023 6:05,3500,Adult,4/3/2023,Monday,5
PNRX352R4X55ZU,4684821109015770,dki,Paramita Budiyanto,F,1997,8C,Kebayoran Lama - Tanah Abang,1,B04301P,Sbr. RSUD Tanah Abang,-6.191139,106.81506,10,4/3/2023 6:53,B05783P,TPU Karet Bivak,-6.201241,106.814,16,4/3/2023 7:35,3500,Adult,4/3/2023,Monday,6
ETEA053H8F95OP,2.13146E+14,emoney,Raina Kusmawati,F,1996,JAK.43B,Tongtek - Tebet Eco Park (TEP) - Cililitan,0,B04112P,Sbr. Mushola Al Hidayah Bukit Duri,-6.222635,106.85527,8,4/3/2023 5:40,B05438P,St. Duren Kalibata 2,-6.256023,106.85547,24,4/3/2023 6:05,0,Adult,4/3/2023,Monday,5
ATGT013D6V79KG,4071961106848962,dki,"Drs. Genta Irawan, M.Pd",M,1993,10B,Rusun Cipinang Besar Selatan - Penas Kalimalang,0,B03270P,Rusun Cipinang Besar Selatan,-6.231625,106.88288,0,4/3/2023 6:33,B05785P,TPU Kb. Nanas 2,-6.232106,106.88017,1,4/3/2023 7:15,0,Adult,4/3/2023,Monday,6
FGIY576J9K96QI,1.80063E+14,emoney,Bajragin Usada,M,2008,5,Matraman Baru - Ancol,0,P00021,Budi Utomo,-6.166063,106.83906,9,4/3/2023 17:53,P00140,Pademangan,-6.133704,106.83164,13,4/3/2023 19:19,3500,Teenager,4/3/2023,Monday,17
CAYG359Y2E26NZ,4885331907664776,dki,Gandi Widodo,F,1997,6C,Stasiun Tebet - Karet via Patra Kuningan,1,B03318P,Sawo Kecik Raya,-6.224852,106.85489,10,4/3/2023 17:35,P00235,Stasiun Tebet,-6.225503,106.85814,11,4/3/2023 19:00,3500,Adult,4/3/2023,Monday,17
OYSZ254V7M55NZ,4996225095064169,dki,Emong Wastuti,F,1992,R1A,Pantai Maju - Kota,1,B02389P,Mayang Permai,-6.116421,106.75963,30,4/3/2023 17:36,B04990P,Simpang Mandara Permai 2,-6.116512,106.75622,31,4/3/2023 18:31,3500,Adult,4/3/2023,Monday,17
CVQP795Z3T34CY,6.39099E+11,flazz,Surya Wacana,F,1978,11D,Pulo Gebang - Pulo Gadung 2 via PIK,1,B02947P,Pool Taksi,-6.188631,106.93426,7,4/3/2023 17:29,B02548P,Pajak Dan Retribusi Cakung,-6.205256,106.9312,18,4/3/2023 18:34,3500,Adult,4/3/2023,Monday,17
UCXG771V8L71ZT,5.70928E+11,flazz,Embuh Mardhiyah,M,1982,12,Tanjung Priok - Pluit,1,P00241,Sunter Kelapa Gading Arah Utara,-6.1429,106.89076,15,4/3/2023 16:37,P00272,Walikota Jakarta Utara Arah Utara,-6.118842,106.89314,17,4/3/2023 18:20,3500,Adult,4/3/2023,Monday,16
ELVF454E9T40AX,2251412124634980,dki,Tirta Siregar,F,1993,1T,Cibubur - Balai Kota,1,B00325P,Dukuh Atas 3,-6.20565,106.8225,7,4/3/2023 16:15,B02873P,Plaza Sentral,-6.216247,106.81676,12,4/3/2023 17:08,20000,Adult,4/3/2023,Monday,16
UQBO067F4Q46YH,2.13156E+14,emoney,"R. Devi Hariyah, S.T.",M,1974,JAK.18,Kalibata - Kuningan,1,B01567P,Jln. Sawo III,-6.216545,106.84427,10,4/3/2023 16:19,B02230P,Masjid Al Barakah Assyafiiyah,-6.220472,106.8508,15,4/3/2023 17:37,0,Elderly,4/3/2023,Monday,16
YCKA830Y7F54EU,3587341902618993,dki,Darmanto Rajasa,F,1991,JAK.03,Lebak Bulus - Andara,0,B01204P,Jln. Karang Tengah Raya,-6.309964,106.78105,11,4/3/2023 17:48,B01493P,Jln. Pinang II Pondok Labu,-6.310414,106.79665,22,4/3/2023 19:43,0,Adult,4/3/2023,Monday,17
FMYJ409Z0K75HJ,6510013988638519,dki,"Cagak Maheswara, S.Sos",F,1992,B14,Bekasi Barat - Kuningan,0,B01963P,Kemenkes 2,-6.2287,106.83302,8,4/3/2023 16:59,B04686P,Setiabudi Utara 2,-6.207513,106.8294,15,4/3/2023 18:15,20000,Adult,4/3/2023,Monday,16
ZLCW600V5F88RI,3580401035990896,dki,"T. Dadap Pradana, M.Ak",M,2004,1Q,Rempoa - Blok M,1,B05642P,Taman Puring 2,-6.242596,106.78793,8,4/3/2023 16:47,B01154P,Jln. IKPN Bintaro,-6.25997,106.76787,20,4/3/2023 17:41,3500,Teenager,4/3/2023,Monday,16
SPUH389B7Z29MT,5541851157087967,dki,"Oskar Widiastuti, S.Farm",F,1997,5M,Kampung Melayu - Tanah Abang via Cikini,0,B01786P,JPO Blok E,-6.184738,106.81492,29,4/3/2023 16:54,B00159P,Blok F,-6.188552,106.81249,31,4/3/2023 18:17,3500,Adult,4/3/2023,Monday,16
NRTT780I2X88BF,3.47204E+14,emoney,R.M. Labuh Laksmiwati,F,1984,M7B,BKN - Blok M,0,B01795P,Kalibata City 2,-6.255816,106.85237,7,4/3/2023 16:37,P00254,Tendean,-6.240213,106.83102,20,4/3/2023 18:36,3500,Adult,4/3/2023,Monday,16
TTLR445M7V54XY,3536759468239783,dki,Shakila Maryadi,F,1988,9A,PGC 2 - Grogol 2,0,P00029,Cawang Ciliwung Arah Barat,-6.243292,106.86359,5,4/3/2023 17:15,P00143,Pancoran Barat Arah Barat,-6.241672,106.8372,9,4/3/2023 18:21,3500,Adult,4/3/2023,Monday,17
OLVU057A7D30SB,6575130739600630,dki,Danuja Usada,F,2002,4,Pulo Gadung 2 - Tosari,0,P00188,Pramuka BPKP,-6.192192,106.87401,5,4/3/2023 17:10,P00135,Matraman 2,-6.19891,106.8545,9,4/3/2023 18:19,3500,Teenager,4/3/2023,Monday,17
CRPN719K9R79EE,4.05684E+12,online,Nadine Utami,M,1975,JAK.46,Pasar Minggu - Jagakarsa,0,B01591P,Jln. SMP 175,-6.319534,106.82512,15,4/3/2023 17:41,B03539P,Sbr. Gg. H. Yusuf Jati Padang,-6.29314,106.82863,27,4/3/2023 19:05,0,Elderly,4/3/2023,Monday,17
PUCT708Z5Z73YZ,4532407180860336,dki,H. Lutfan Nurdiyanti,M,2011,S22,Ciputat - Kampung Rambutan,1,B03033P,Pusdiklat Kemenag 2,-6.312209,106.75252,20,4/3/2023 17:32,B02919P,Pom Bensin Ciputat,-6.321313,106.74627,22,4/3/2023 18:42,3500,Teenager,4/3/2023,Monday,17
YNXM829G2F89UP,4556326832434362836,brizzi,Sari Nababan,F,2004,13,Ciledug - Tendean,0,P00096,JORR,-6.236104,106.75488,3,4/3/2023 16:10,P00044,CSW 1,-6.23994,106.79843,10,4/3/2023 17:38,3500,Teenager,4/3/2023,Monday,16
EPYH652O3H89ZZ,4.96928E+12,online,"Hj. Ophelia Haryanti, S.Sos",M,2002,9E,Kebayoran Lama - Jelambar,0,B01792P,Juraganan,-6.220342,106.79119,6,4/3/2023 17:45,P00190,Ps. Palmerah,-6.207817,106.79695,11,4/3/2023 19:07,3500,Teenager,4/3/2023,Monday,17
AKEH019J3M04SX,5.02035E+11,flazz,"Adikara Kurniawan, S.Sos",M,2003,M9,Pinang Ranti - Pluit,0,P00090,Jembatan Dua,-6.143279,106.79352,21,4/3/2023 17:03,P00181,Pluit,-6.115795,106.79037,24,4/3/2023 18:25,3500,Teenager,4/3/2023,Monday,17
WSBL539K5G66AY,5430018591726410,dki,Karna Waskita,M,1981,JAK.88,Terminal Tanjung Priok - Ancol Barat,1,B05970P,SMA 40,-6.13136,106.84143,12,4/3/2023 16:36,B06875P,Jln. R. E. Martadinata,-6.130036,106.83429,19,4/3/2023 18:09,0,Adult,4/3/2023,Monday,16
OYWL771V1I58ZS,3.78872E+14,emoney,Aslijan Irawan,F,2009,T11,Poris Plawad - Bundaran Senayan,0,B02871P,Plaza Senayan 1,-6.224748,106.798376,23,4/3/2023 16:37,B04674P,Senayan City,-6.227767,106.798089,24,4/3/2023 18:12,3500,Teenager,4/3/2023,Monday,16
MOHL390Z9E69AL,3.43852E+14,emoney,Garang Utama,F,1997,JAK.16,Cililitan - Condet,1,B03038P,Puskesmas Balekambang,-6.284147,106.85164,14,4/3/2023 16:17,B00410P,Gg. Ayama,-6.27204,106.8671,29,4/3/2023 17:32,0,Adult,4/3/2023,Monday,16
ZSLX355D0E21QF,6.76293E+11,flazz,Fathonah Saefullah,M,1983,6V,Ragunan - Gelora Bung Karno,1,P00228,SMK 57,-6.290967,106.82365,14,4/3/2023 16:02,P00199,Ragunan,-6.305769,106.81949,16,4/3/2023 17:44,3500,Adult,4/3/2023,Monday,16
XXKS292O5N63OB,2.13191E+14,emoney,Darman Purwanti,M,1999,11Q,Kampung Melayu - Pulo Gebang via BKT,1,P00086,Jatinegara RS Premier,-6.221412,106.86807,2,4/3/2023 16:01,B00767P,Hero Basuki Rahmat,-6.22764,106.88296,6,4/3/2023 17:12,3500,Teenager,4/3/2023,Monday,16
JBNM343O0Y86XO,2295833910329055,dki,Taufik Farida,F,1981,JAK.02,Kampung Melayu - Duren Sawit,1,B02339P,Masjid Jami Attaubah 2,-6.231559,106.87297,29,4/3/2023 17:26,B05706P,Term. Kampung Melayu,-6.224804,106.86697,36,4/3/2023 19:06,0,Adult,4/3/2023,Monday,17
FYBA715L7K90RR,4968156435384914,dki,Martana Suartini,F,2007,11,Pulo Gebang - Matraman,1,P00080,Imigrasi Jakarta Timur,-6.214632,106.88227,4,4/3/2023 17:14,P00234,Stasiun Klender,-6.213532,106.89866,6,4/3/2023 18:27,3500,Teenager,4/3/2023,Monday,17
ODIR637M5G78ED,6.76367E+11,flazz,Eluh Nugroho,F,2011,1C,Pesanggrahan - Blok M,1,B04684P,Seskoal 1,-6.238155,106.77231,11,4/3/2023 17:08,B02008P,Kolong Tol Guru Saleh,-6.257605,106.76529,37,4/3/2023 18:08,3500,Teenager,4/3/2023,Monday,17
FAHN722E1I44NR,4384653483539395,dki,"Cut Hana Maulana, S.H.",F,1979,3B,Rusun Flamboyan - Cengkareng,1,B04136P,Sbr. Ps. Cengkareng,-6.151851,106.72708,1,4/3/2023 17:03,B00192P,BSI Cengkareng,-6.147973,106.72781,3,4/3/2023 19:00,0,Adult,4/3/2023,Monday,17
QTCF894R4G88HT,2.13155E+14,emoney,Tgk. Ilsa Farida,M,1983,R1A,Pantai Maju - Kota,1,B01680P,Jln. Tiang Bendera III,-6.134768,106.80901,5,4/3/2023 17:40,B03165P,RS PIK 2,-6.112549,106.75264,33,4/3/2023 18:52,3500,Adult,4/3/2023,Monday,17
HCUL755D8E37PW,4.68222E+12,online,"Drs. Nadia Ramadan, S.Sos",M,1960,M1,Blok M - Kota,1,P00256,MH Thamrin,-6.188149,106.82299,10,4/3/2023 16:21,P00261,Tosari,-6.196892,106.82309,12,4/3/2023 18:17,3500,Elderly,4/3/2023,Monday,16
IRYL646I7M52NF,3589380857722689,dki,drg. Lukman Hidayanto,M,1995,JAK.46,Pasar Minggu - Jagakarsa,0,B03746P,Sbr. Jln. Kebagusan III,-6.309188,106.827,19,4/3/2023 16:18,B01965P,Kementan,-6.294976,106.82448,25,4/3/2023 18:02,0,Adult,4/3/2023,Monday,16
HYBV950C9O40PX,4394677357168120,dki,"Ibrahim Prayoga, S.H.",F,2001,7E,Kampung Rambutan - Ragunan,1,B01062P,Jln. Gabus Raya,-6.301222,106.83623,7,4/3/2023 16:24,P00247,Tanah Merdeka Arah Timur,-6.307866,106.87389,16,4/3/2023 17:33,3500,Teenager,4/3/2023,Monday,16
YEYY278B4H32FR,4905734029265594,dki,Ega Andriani,F,1990,1P,Senen - Blok M,1,B00113P,Bank Indonesia 2,-6.182667,106.82275,18,4/3/2023 16:08,B05442P,St. Gambir 2,-6.17568,106.8307,25,4/3/2023 17:55,3500,Adult,4/3/2023,Monday,16
HUJD591M7V46OW,3.79335E+14,emoney,Salman Ramadan,M,1968,7D,Pancoran - Kampung Rambutan,1,B01762P,Jembatan Pintu Satu,-6.300382,106.88363,2,4/3/2023 16:35,P00029,Cawang Ciliwung Arah Barat,-6.243292,106.86359,11,4/3/2023 17:43,3500,Elderly,4/3/2023,Monday,16
DZRG405V4E66LH,3.46911E+14,emoney,Zizi Nasyiah,M,1985,6H,Senen - Lebak Bulus,0,B02840P,Pintu Air Menteng,-6.19598,106.83266,21,4/3/2023 17:26,P00103,Karet Kuningan,-6.21667,106.830737,28,4/3/2023 18:31,3500,Adult,4/3/2023,Monday,17
CPBC333O4A03VR,2247096843683316,dki,"Tgk. Aris Pradipta, M.M.",F,2010,14,Jakarta International Stadium - Senen,0,B04517P,Sbr. Sunter Icon,-6.134808,106.85595,5,4/3/2023 16:34,B00292P,Danau Agung 1,-6.147281,106.8582,8,4/3/2023 17:26,3500,Teenager,4/3/2023,Monday,16
NLBW733F7K23LY,6.7599E+11,flazz,Margana Narpati,F,1989,BW9,Monas - Pantai Indah Kapuk,0,B06049P,Melody Golf,-6.091746,106.7461,7,4/3/2023 17:35,B06040P,Pantai Maju,-6.093637,106.75068,8,4/3/2023 19:13,0,Adult,4/3/2023,Monday,17
CZKI435A5L57FO,6.3904E+11,flazz,"Galang Megantara, S.Ked",M,1989,JIS3,Harmoni - Jakarta International Stadium,1,B04789P,Simpang Danau Sunter Utara Barat,-6.139853,106.85663,11,4/3/2023 16:47,B01745P,Jembatan Item,-6.130078,106.85492,13,4/3/2023 18:44,3500,Adult,4/3/2023,Monday,16
JVBJ419W2O33ZZ,4947438345710982,dki,Rahayu Rahayu,F,2006,5M,Kampung Melayu - Tanah Abang via Cikini,0,B01786P,JPO Blok E,-6.184738,106.81492,29,4/3/2023 16:12,B02830P,Pharmin,-6.182988,106.81306,30,4/3/2023 18:05,3500,Teenager,4/3/2023,Monday,16
TSGM259F6P64OW,3539535695881465,dki,"Dr. Zulfa Tamba, S.E.I",M,1986,2,Pulo Gadung - Monas,1,P00037,Cempaka Tengah,-6.170398,106.86659,8,4/3/2023 16:56,P00192,Pulo Gadung 1,-6.183239,106.90907,15,4/3/2023 18:25,3500,Adult,4/3/2023,Monday,16
IXYE603C1E88LP,5.74727E+11,flazz,drg. Lukita Rajata,F,1983,JAK.15,Bulak Turi - Tanjung Priok,1,B03236P,Ruko Enggano,-6.10982,106.88493,1,4/3/2023 17:53,B02620P,Ps. Jongkok,-6.108844,106.93442,30,4/3/2023 19:33,0,Adult,4/3/2023,Monday,17
GSFK527C6K63FK,3.44304E+14,emoney,"R. Mila Wahyuni, S.Sos",F,2006,R1A,Pantai Maju - Kota,0,B05252P,SMAK Penabur Enam 1,-6.114247,106.77389,17,4/3/2023 17:00,B00079P,Aston Pluit 1,-6.124693,106.79511,28,4/3/2023 18:42,3500,Teenager,4/3/2023,Monday,17
HFZK276X6C19FB,3544931989278653,dki,"Artawan Iswahyudi, M.Pd",M,1991,6N,Ragunan - Blok M via Kemang,1,B06577P,Blok M Jalur 2,-6.243369,106.80188,0,4/3/2023 17:28,B00067P,Arsip Nasional RI 2,-6.279481,106.81995,15,4/3/2023 18:24,3500,Adult,4/3/2023,Monday,17
UWPN677R7U96ET,4017802962833960,dki,Aurora Hasanah,F,1990,M11,Pulo Gebang - Pulo Gadung 2,1,P00059,Flyover Radin Inten,-6.215982,106.92438,4,4/3/2023 17:50,P00169,Penggilingan,-6.214132,106.93961,6,4/3/2023 18:48,3500,Adult,4/3/2023,Monday,17
DVTB939V1K01ZQ,5465310774429054,dki,Hj. Rahmi Hartati,F,2010,JAK.112,Terminal Tanah Merah - Pulo Gadung,1,B01516P,Jln. Primanota,-6.168008,106.91097,16,4/3/2023 16:25,B00173P,Boulevard Kelapa Hybrida Raya 2,-6.148396,106.90935,28,4/3/2023 17:40,0,Teenager,4/3/2023,Monday,16
DNLO691D3N17QV,3.47394E+14,emoney,Darmaji Wahyuni,F,2003,9N,Pinang Ranti - Pramuka,1,P00016,BKN,-6.257751,106.87,0,4/3/2023 16:26,P00064,Garuda Taman Mini,-6.290154,106.88116,1,4/3/2023 17:48,3500,Teenager,4/3/2023,Monday,16
CWWW049O5N58QA,4723250872219869,dki,Cager Setiawan,M,1965,JAK.43B,Tongtek - Tebet Eco Park (TEP) - Cililitan,1,B04133P,Sbr. Ps. Bukit Duri,-6.217564,106.85417,39,4/3/2023 17:28,B05772P,Tongtek,-6.21662,106.8628,42,4/3/2023 19:11,0,Elderly,4/3/2023,Monday,17
CKHW178T8C64TR,3545499820365948,dki,Cawuk Mayasari,F,2002,JAK.42,Kampung Melayu - Pondok Kelapa,0,B04469P,Sbr. SMPN 148,-6.218411,106.89498,19,4/3/2023 17:42,B01578P,Jln. Serdang,-6.228906,106.91459,33,4/3/2023 18:46,0,Teenager,4/3/2023,Monday,17
NANH684O0O94KO,2718070346782735,dki,Asman Uyainah,F,2005,2,Pulo Gadung - Monas,1,P00014,Bermis,-6.178203,106.89859,14,4/3/2023 17:10,P00192,Pulo Gadung 1,-6.183239,106.90907,15,4/3/2023 18:37,3500,Teenager,4/3/2023,Monday,17
TQCI395C8U88MF,3.42532E+14,emoney,Zulaikha Yulianti,F,1991,13,Ciledug - Tendean,0,P00136,Mayestik,-6.241921,106.79077,9,4/3/2023 16:17,P00259,Tirtayasa,-6.239207,106.80777,11,4/3/2023 18:12,3500,Adult,4/3/2023,Monday,16
VPNY034F3G98JW,3.49944E+14,emoney,Oliva Sirait,M,1983,7P,Pondok Kelapa - BKN,0,B00335P,Embun Pagi Islamic Elementary School,-6.248768,106.92911,9,4/3/2023 16:53,B02141P,Lion Center,-6.240451,106.87898,27,4/3/2023 17:45,3500,Adult,4/3/2023,Monday,16
JRKL899I4L98LZ,4428582927102421723,brizzi,"dr. Belinda Handayani, S.E.",M,2002,JAK.02,Kampung Melayu - Duren Sawit,1,B05083P,Simpang Pondok Bambu Batas 2,-6.241533,106.90058,9,4/3/2023 16:20,B02227P,Masjid Al Akhbar PWI 2,-6.233343,106.88858,17,4/3/2023 17:16,0,Teenager,4/3/2023,Monday,16
HUMU199H2R74BK,5.66172E+11,flazz,Laila Simanjuntak,F,1992,11,Pulo Gebang - Matraman,0,P00224,Slamet Riyadi,-6.208533,106.85929,16,4/3/2023 17:20,P00134,Matraman 1,-6.19998,106.85443,18,4/3/2023 18:34,3500,Adult,4/3/2023,Monday,17
MUCR358X3N35ZV,2.13122E+14,emoney,Pranata Wahyudin,F,2009,JAK.36,Cilangkap - Cililitan,1,B00949P,Jln. Budi Murni Raya Cilangkap,-6.33352,106.89479,25,4/3/2023 16:33,B01079P,Jln. Giri Kencana Raya Cilangkap,-6.340412,106.90292,30,4/3/2023 18:18,0,Teenager,4/3/2023,Monday,16
NZSN979W2J78WG,3527853482331808,dki,Puti Paris Marpaung,M,2003,13B,Puri Beta - Pancoran Barat,0,P00200,Rawa Barat,-6.238947,106.81624,12,4/3/2023 16:45,P00144,Pancoran Barat Arah Timur,-6.241571,106.83808,13,4/3/2023 18:05,3500,Teenager,4/3/2023,Monday,16
RUGR300X6N56RB,4380875529452127,dki,Tirtayasa Sitorus,F,1988,JAK.06,Kampung Rambutan - Pondok Gede,1,B00700P,Green Terrace,-6.303484,106.88539,13,4/3/2023 17:27,B02502P,Museum Nasional VIsible Storage,-6.307188,106.89653,16,4/3/2023 18:30,0,Adult,4/3/2023,Monday,17
XBOY023M8F75YB,4172238784006231,dki,"Galak Prayoga, S.Pd",M,1993,JAK.14,Tanah Abang - Meruya,0,B01638P,Jln. Taman Jatibaru Timur,-6.182778,106.8129,3,4/3/2023 17:06,B03261P,Ruko Taman Kb. Jeruk,-6.197388,106.74818,58,4/3/2023 18:08,0,Adult,4/3/2023,Monday,17
HBEM772F9O41VY,3.40065E+14,emoney,Tgk. Garda Utami,F,2010,M7,Kampung Rambutan - Monas,1,P00051,Dukuh Atas,-6.205702,106.82223,5,4/3/2023 17:08,P00060,Flyover Raya Bogor,-6.3065,106.8657,24,4/3/2023 18:08,3500,Teenager,4/3/2023,Monday,17
ZSRY589C8Y95YP,4268640600849949,dki,"Elvina Situmorang, S.Psi",F,1985,JAK.15,Bulak Turi - Tanjung Priok,1,B04940P,Simpang Kesemek 2,-6.113324,106.92085,16,4/3/2023 17:00,B03893P,Sbr. Kebantenan IX,-6.108601,106.93245,28,4/3/2023 18:58,0,Adult,4/3/2023,Monday,17
QLDR614W7F89ZJ,4.29056E+12,online,Lutfan Hakim,M,2011,T21,Palem Semi - Bundaran Senayan,0,B00611P,Gelora Bung Karno 1,-6.224642,106.8056,9,4/3/2023 17:01,B05544P,Summitmas,-6.225826,106.80402,10,4/3/2023 18:33,20000,Teenager,4/3/2023,Monday,17
TNTE356V7O71NF,2.13155E+14,emoney,Restu Waluyo,F,1984,12A,Pelabuhan Kaliadem - Kota,1,P00008,Bandengan Selatan,-6.136318,106.80347,2,4/3/2023 16:47,B02805P,Perumahan Buddha Tzu Chi 2,-6.107634,106.77184,17,4/3/2023 18:20,3500,Adult,4/3/2023,Monday,16
DLHS226L5B41GW,4294484188649274,dki,Gara Sitompul,F,1999,9D,Pasar Minggu - Tanah Abang,1,B00694P,Grand Sahid,-6.210975,106.82059,31,4/3/2023 16:47,P00256,MH Thamrin,-6.188149,106.82299,37,4/3/2023 17:43,3500,Teenager,4/3/2023,Monday,16
WHIW427O9T27ZC,1.80058E+14,emoney,Daryani Prabowo,M,1989,1,Blok M - Kota,0,P00133,Masjid Agung,-6.236483,106.79845,2,4/3/2023 16:25,P00183,Polda Metro Jaya,-6.221094,106.81028,5,4/3/2023 17:44,3500,Adult,4/3/2023,Monday,16
LVZA078T4X21HN,3551174827324245,dki,Gangsa Widodo,M,1966,3A,Rusun Pesakih - Kalideres,0,B03286P,Rusun Pesakih,-6.161468,106.71698,0,4/3/2023 17:46,B02379P,Masjid Raya KH Hasyim Asyari,-6.159272,106.71708,1,4/3/2023 19:21,0,Elderly,4/3/2023,Monday,17
YBPQ004N4L63TY,3.40858E+14,emoney,"Yance Pratama, S.Kom",F,1994,6N,Ragunan - Blok M via Kemang,0,B00037P,Ampera 3,-6.291196,106.81706,4,4/3/2023 17:16,B01272P,Jln. Kenanga,-6.287468,106.81848,7,4/3/2023 18:33,3500,Adult,4/3/2023,Monday,17
VJVK770E4P98GW,3569562588766630,dki,"dr. Sakura Budiman, S.IP",M,1972,3C,Rusun Kapuk Muara - Penjaringan,0,B03277P,Rusun Kapuk Muara,-6.135667,106.76299,0,4/3/2023 16:48,P00170,Penjaringan,-6.126306,106.79203,1,4/3/2023 17:51,0,Elderly,4/3/2023,Monday,16
WNSS942V6G54MH,1.80017E+14,emoney,"Zalindra Irawan, M.TI.",M,1992,M8,Lebak Bulus - Pasar Baru,1,P00209,RS Tarakan,-6.171146,106.81011,21,4/3/2023 17:04,P00161,Pecenongan,-6.16771,106.82819,23,4/3/2023 18:32,3500,Adult,4/3/2023,Monday,17
ZREU174C0I80YR,3.73945E+14,emoney,"Jamal Pudjiastuti, S.I.Kom",F,1981,B21,Bekasi Timur - Cawang,0,P00019,BTC,-6.258292,107.02069,8,4/3/2023 16:59,P00297,BNN LRT,-6.245863,106.871143,13,4/3/2023 18:23,3500,Adult,4/3/2023,Monday,16
LUHQ016E0I55DV,5134532253940704,dki,Suci Wacana,M,1985,12A,Pelabuhan Kaliadem - Kota,0,B02804P,Perumahan Buddha Tzu Chi 1,-6.107548,106.77192,1,4/3/2023 16:49,B02489P,Muara Angke,-6.110009,106.77471,3,4/3/2023 17:51,3500,Adult,4/3/2023,Monday,16
BXVS080I7X46TX,3549158005951908,dki,"Mustofa Wijayanti, M.Farm",M,1981,1T,Cibubur - Balai Kota,1,B05773P,Tosari 1,-6.199166,106.82334,6,4/3/2023 17:54,B00325P,Dukuh Atas 3,-6.20565,106.8225,7,4/3/2023 19:39,20000,Adult,4/3/2023,Monday,17
BMXW186P0X47YO,3.79764E+14,emoney,Saka Sihombing,F,1969,JAK.71,Kampung Rambutan - Pinang Ranti,1,B02525P,Mutiara Pulo Dukuh,-6.302629,106.87781,16,4/3/2023 16:43,B03109P,RPTRA Dukuh,-6.301412,106.87583,17,4/3/2023 17:55,0,Elderly,4/3/2023,Monday,16
FANK143U0T75UY,4189640459822695962,brizzi,Mutia Mayasari,M,1978,JAK.77,Tanjung Priok - Jembatan Item,1,B01704P,Jln. Warakas I Gg. 8,-6.117623,106.87674,10,4/3/2023 17:01,B06872P,Sbr. Jln. Ancol Selatan,-6.134139,106.855696,38,4/3/2023 17:57,0,Adult,4/3/2023,Monday,17
OFBE911T0V41FU,4766007569419196,dki,"Danu Suartini, S.Farm",M,2010,M3,Kalideres - Bundaran HI via Veteran,0,P00025,Bundaran HI,-6.193021,106.823,0,4/3/2023 16:58,P00081,Indosiar,-6.163376,106.77514,8,4/3/2023 17:51,3500,Teenager,4/3/2023,Monday,16
QNAB897F1E84GK,3576239635494729,dki,Harsaya Natsir,F,1970,JAK.44,Andara - Stasiun Universitas Pancasila,1,B04625P,Sekolah Cita Buana,-6.316189,106.81425,25,4/3/2023 17:33,B00042P,Andara Margasatwa 1,-6.313471,106.80369,36,4/3/2023 19:01,0,Elderly,4/3/2023,Monday,17
HDCE001G5Z40TA,5.87888E+11,flazz,Drs. Harjo Nurdiyanti,M,1986,14,Jakarta International Stadium - Senen,1,B06066P,Polres Metro Jakpus,-6.159496,106.8514,7,4/3/2023 16:41,B06067P,Sunter Muara 1,-6.144331,106.85745,10,4/3/2023 18:39,3500,Adult,4/3/2023,Monday,16
HVTC198R7L92EW,5.67286E+11,flazz,"Dt. Atmaja Suartini, M.Farm",F,2000,JAK.48B,Stasiun Tebet - Kampung Melayu,1,B00138P,Bidara Cina 1,-6.229954,106.86735,1,4/3/2023 16:27,B05512P,St. Tebet 3,-6.225604,106.85923,7,4/3/2023 18:13,0,Teenager,4/3/2023,Monday,16
ERRP702W4A72PW,4.09712E+12,online,Dewi Mansur,M,1994,8K,Batusari - Grogol,0,B02048P,Komplek Kodam Jaya Kb. Jeruk,-6.197819,106.77097,5,4/3/2023 17:45,B05344P,SMPN 127,-6.198939,106.7783,10,4/3/2023 19:28,3500,Adult,4/3/2023,Monday,17
OZNH949H1H68DA,3.78851E+14,emoney,Tina Hutasoit,F,1981,JAK.19,Pinang Ranti - Kampung Rambutan,1,B02328P,Masjid Jami Al-Baidlo,-6.295729,106.89896,40,4/3/2023 16:01,B00077P,Asshomadiyah Medicare Centre 2,-6.29557,106.89825,41,4/3/2023 17:10,0,Adult,4/3/2023,Monday,16
ADYF062Y3E52UA,1.80023E+14,emoney,"Tgk. Tania Zulaika, M.Pd",F,2010,M10,PGC 2 - Tanjung Priok,0,P00196,Pulo Mas Bypass,-6.176953,106.876,12,4/3/2023 16:27,P00248,Tanjung Priok,-6.10959,106.88214,21,4/3/2023 17:33,3500,Teenager,4/3/2023,Monday,16
TDRW354U5T23OZ,2237440645700724,dki,Latika Sirait,M,1953,10D,Kampung Rambutan - Tanjung Priok,0,P00247,Tanah Merdeka Arah Timur,-6.307866,106.87389,16,4/3/2023 16:48,P00101,Kampung Rambutan,-6.309885,106.88216,17,4/3/2023 17:44,3500,Elderly,4/3/2023,Monday,16
BNVZ241B7D89BG,6011162006507240,dki,Lasmanto Budiman,M,1989,JAK.75,Cililitan - Kp. Pulo,1,B00154P,BKN 1,-6.258026,106.86955,22,4/3/2023 16:58,B03604P,Sbr. Graha Dirgantara,-6.255569,106.88303,24,4/3/2023 18:06,0,Adult,4/3/2023,Monday,16
KNTX062D3H73TB,4730280883020443501,brizzi,Zamira Puspita,M,1977,B11,Summarecon Bekasi - BNN,1,P00297,BNN LRT,-6.245863,106.871143,0,4/3/2023 16:56,B00108P,Bandar Djakarta Bekasi,-6.227085,106.99683,5,4/3/2023 18:54,3500,Elderly,4/3/2023,Monday,16
BBHK037K5L46HC,3505707886664931,dki,T. Bagas Halimah,F,1994,JAK.52,Terminal Kalideres - Terminal Muara Angke,1,B00242P,Centro Metro Broadway,-6.116362,106.76143,14,4/3/2023 17:45,B06656P,Pesakih 1,-6.154564,106.71537,43,4/3/2023 19:41,0,Adult,4/3/2023,Monday,17
LZHS210I9E65QN,4450403105752326,dki,"Dr. Intan Mulyani, S.E.I",M,1977,JAK.37,Cililitan - Condet via Kayu Manis,1,B04057P,Sbr. Masjid Jami Al Muttaqin Balekambang,-6.283996,106.85052,2,4/3/2023 17:08,B03548P,Sbr. Gg. Mundu II Tengah,-6.292947,106.86324,14,4/3/2023 19:05,0,Elderly,4/3/2023,Monday,17
ECGN365Y5C39JI,4074114259011835374,brizzi,Vero Hutagalung,F,1983,JAK.31,Blok M - Andara,1,B00245P,Child Care Pre School,-6.257557,106.8009,48,4/3/2023 17:02,B06579P,Blok M Jalur 4,-6.243474,106.80188,57,4/3/2023 18:02,0,Adult,4/3/2023,Monday,17
JMRJ567M1Y59KQ,4.00004E+12,online,Diah Marpaung,M,2012,11M,Rusun Rawa Bebek - Bukit Duri,1,P00058,Flyover Klender,-6.213596,106.90306,7,4/3/2023 16:28,P00102,Kampung Sumur,-6.214412,106.91189,8,4/3/2023 18:20,0,Child,4/3/2023,Monday,16
SUSW195I2O96SJ,4.11233E+12,online,"Drs. Gilda Sinaga, S.Psi",M,1994,JAK.43C,Sarana Jaya - Tebet Eco Park (TEP) - Stasiun Cawang,0,B06277P,Jln.Tebet Barat V,-6.233937,106.8477,0,4/3/2023 16:53,B06674P,Tebet Eco Park Selatan 4,-6.239215,106.8519,4,4/3/2023 18:26,0,Adult,4/3/2023,Monday,16
YITG095O5O02NM,3.05835E+13,bni,Bahuwirya Rahayu,M,1981,2F,Rusun Cakung Barat - Pulo Gadung,0,P00258,Tipar Cakung,-6.183387,106.92463,2,4/3/2023 17:24,P00028,Cakung United Tractors,-6.18324,106.92998,3,4/3/2023 19:12,0,Adult,4/3/2023,Monday,17
ZMJY784Z6S33DW,3537543297101185,dki,Samsul Ramadan,M,1966,M11,Pulo Gebang - Pulo Gadung 2,0,P00174,Perumnas Klender,-6.216689,106.93054,3,4/3/2023 17:18,P00102,Kampung Sumur,-6.214412,106.91189,6,4/3/2023 18:39,3500,Elderly,4/3/2023,Monday,17
MMLR321A9W59HV,2720484776954605,dki,Bancar Irawan,M,1999,3B,Rusun Flamboyan - Cengkareng,1,B03041P,Puskesmas Cengkareng,-6.144546,106.72866,4,4/3/2023 16:34,B02808P,Perumahan KFT 1,-6.135093,106.72983,6,4/3/2023 18:20,0,Teenager,4/3/2023,Monday,16
JWJD672G1T48DP,3570422408611549,dki,"Jati Nainggolan, M.TI.",F,1987,8C,Kebayoran Lama - Tanah Abang,0,B00391P,Gandaria City,-6.243912,106.7824,3,4/3/2023 16:01,B02014P,Kompas Gramedia,-6.210472,106.79598,13,4/3/2023 17:18,3500,Adult,4/3/2023,Monday,16
ODGU344M7Z62JA,2291402671071407,dki,Puspa Saptono,F,1984,M2,Pulo Gadung - Monas,1,P00195,Pulo Mas,-6.174736,106.89277,13,4/3/2023 16:37,P00014,Bermis,-6.178203,106.89859,14,4/3/2023 17:39,3500,Adult,4/3/2023,Monday,16
QPVW924T9M99HO,6.76173E+11,flazz,"Dr. Zaenab Wulandari, S.Ked",M,1996,12B,Pluit - Senen,0,P00013,Kota,-6.13679,106.8149,17,4/3/2023 17:19,P00146,Pangeran Jayakarta,-6.137611,106.81792,18,4/3/2023 18:55,3500,Adult,4/3/2023,Monday,17
GYPR528U3I95VU,1.80021E+14,emoney,T. Karna Sihombing,F,2001,5D,PGC 1 - Ancol,1,P00253,Tegalan,-6.203101,106.85715,11,4/3/2023 17:04,P00297,BNN LRT,-6.245863,106.871143,19,4/3/2023 18:56,3500,Teenager,4/3/2023,Monday,17
ONVE327D9V47QL,3.0385E+13,bni,"dr. Vega Rahimah, S.Pt",M,2003,JAK.117,Tanjung Priok - Tanah Merdeka,1,B01056P,Jln. Elpa Putih II,-6.110053,106.88721,28,4/3/2023 16:51,B05728P,Term. Tj. Priok 1,-6.1098,106.88118,30,4/3/2023 18:21,0,Teenager,4/3/2023,Monday,16
YHQJ295K9Z52XX,6590854673757012,dki,Bajragin Najmudin,M,1986,3H,Jelambar - Kota,1,P00294,Sawah Besar Arah Selatan,-6.157368,106.818661,4,4/3/2023 17:21,P00292,Harmoni Arah Selatan,-6.162687,106.81992,5,4/3/2023 18:24,3500,Adult,4/3/2023,Monday,17
LVLK594L1V69JE,4963710913075879668,brizzi,Ophelia Firmansyah,M,2000,14,Jakarta International Stadium - Senen,1,B03885P,Sbr. Jembatan Sukamulya III,-6.170489,106.85205,3,4/3/2023 17:24,B06067P,Sunter Muara 1,-6.144331,106.85745,10,4/3/2023 19:14,3500,Teenager,4/3/2023,Monday,17
MJMV928R2M42RY,3.42876E+14,emoney,Marsito Melani,F,2010,7A,Kampung Rambutan - Lebak Bulus,0,B00400P,Gg. Ali,-6.307683,106.87636,2,4/3/2023 16:42,B01857P,Kebagusan Raya,-6.296314,106.82703,18,4/3/2023 17:48,3500,Teenager,4/3/2023,Monday,16
XMLU695Y4L68ZF,4744480387450088900,brizzi,Galur Riyanti,F,1980,JAK.44,Andara - Stasiun Universitas Pancasila,1,B05464P,St. Lenteng Agung 2,-6.331342,106.83467,7,4/3/2023 16:50,B04591P,Sbr. Yayasan Al Azhar Syuhada,-6.326612,106.8207,17,4/3/2023 18:49,0,Adult,4/3/2023,Monday,16
TETO214A6E60RN,4909284437358495207,brizzi,Bakiman Budiman,F,1981,7Q,Blok M - PGC,0,B03889P,Sbr. Kalibata Square,-6.255574,106.85167,26,4/3/2023 17:05,B02771P,Pertigaan Dewi Sartika,-6.258864,106.864131,29,4/3/2023 17:56,3500,Adult,4/3/2023,Monday,17
EUUW788Z9V28MH,2267435685058176,dki,"R.M. Simon Wastuti, S.T.",F,1995,JAK.20,Cawang UKI - Lubang Buaya,1,B02109P,Lakesgilut TNI AU 2,-6.287858,106.89803,3,4/3/2023 16:43,B04464P,Sbr. SMPN 128,-6.279045,106.88927,9,4/3/2023 18:08,0,Adult,4/3/2023,Monday,16
ILRC102O5T33GZ,4613366061817460310,brizzi,"Lurhur Prasetya, S.E.I",M,1991,1M,Meruya - Blok M,1,B01947P,Kel. Srengseng,-6.203472,106.75694,29,4/3/2023 17:42,B05411P,SPBU Meruya Ilir,-6.19749,106.75352,34,4/3/2023 19:38,3500,Adult,4/3/2023,Monday,17
RNWP803I9Q37OE,4664503638851963221,brizzi,Darman Puspasari,F,1996,JAK.118,Taman Waduk Papanggo - Kota Tua,1,B04521P,Sbr. Taman BMW,-6.12629,106.85763,26,4/3/2023 16:21,B06076P,Sbr. SDN Sunter Agung 09,-6.127635,106.85913,28,4/3/2023 18:15,0,Adult,4/3/2023,Monday,16
OTMW545J8R66KS,3.41371E+14,emoney,Pia Simanjuntak,F,1977,JAK.36,Cilangkap - Cililitan,0,B04333P,Sbr. SDN Dukuh 01,-6.287962,106.87417,31,4/3/2023 16:09,B04211P,Sbr. PLN Kramat Jati,-6.283302,106.8716,35,4/3/2023 17:48,0,Elderly,4/3/2023,Monday,16
KNQE234R6Q53RB,3.02767E+13,bni,"Teguh Wijaya, S.Pt",F,1981,5C,PGC - Juanda,1,P00154,Pasar Jatinegara,-6.215744,106.86632,10,4/3/2023 16:00,P00070,Gelanggang Remaja,-6.235445,106.86795,13,4/3/2023 17:35,3500,Adult,4/3/2023,Monday,16
GRDW155T1O78XE,3549191016294752,dki,"T. Gangsa Hutasoit, S.IP",M,1985,JAK.27,Pulo Gebang - Rorotan,0,B02280P,Masjid At Taqwa Karang Tengah,-6.151522,106.97204,45,4/3/2023 17:38,B04942P,Simpang KH Abdulloh Karang Tengah 1,-6.147051,106.97188,47,4/3/2023 18:55,0,Adult,4/3/2023,Monday,17
LEPA707E2P40BB,2679374058097150,dki,"Dina Zulkarnain, M.M.",M,1991,B11,Summarecon Bekasi - BNN,1,P00297,BNN LRT,-6.245863,106.871143,0,4/3/2023 17:48,P00236,Summarecon Bekasi,-6.225566,107.00281,6,4/3/2023 18:46,3500,Adult,4/3/2023,Monday,17
BSKF767T3S26SR,4104888875282062619,brizzi,Tgk. Uda Gunarto,F,1996,6Q,Dukuh Atas - Casablanca via Epicentrum Raya,1,B03395P,Pal Batu 3,-6.225075,106.84149,2,4/3/2023 16:34,B04907P,Simpang Kawi Raya,-6.209476,106.83322,11,4/3/2023 17:41,3500,Adult,4/3/2023,Monday,16
PAQB054F7O09HV,4547245090487583462,brizzi,Padmi Marpaung,F,1992,4E,Rusun Jatinegara Kaum - Pulo Gadung,1,B02997P,Pulo Gadung,-6.183245,106.90868,0,4/3/2023 16:04,B01620P,Jln. Swadaya Pln,-6.20965,106.90171,9,4/3/2023 17:21,0,Adult,4/3/2023,Monday,16
TQMN488F3S68ZT,3560398544907466,dki,"drg. Gawati Uyainah, S.T.",M,1994,JAK.13,Tanah Abang - Jembatan Lima,0,B04381P,Sbr. Sekolah Bhineka Tunggal Ika,-6.15058,106.80752,29,4/3/2023 17:57,B02580P,Ps. Asemka,-6.140507,106.81149,38,4/3/2023 19:30,0,Adult,4/3/2023,Monday,17
IZEU302S1W21XV,3528988342978833,dki,Narji Waskita,M,1985,JIS3,Harmoni - Jakarta International Stadium,0,P00095,JIS,-6.126689,106.85587,0,4/3/2023 16:51,P00097,Juanda,-6.168048,106.83089,11,4/3/2023 18:01,3500,Adult,4/3/2023,Monday,16
JXOF064M4G34CA,3535679723903364,dki,"Dr. Gamanto Winarsih, S.Ked",F,1991,JAK.84,Terminal Kampung Melayu - Kapin Raya,1,B05825P,Univ. Borobudur 2,-6.241463,106.89608,28,4/3/2023 17:42,B00088P,Awab Dalam,-6.224877,106.8696,44,4/3/2023 18:51,0,Adult,4/3/2023,Monday,17
RIAE809D7H71JP,3.45353E+14,emoney,Ir. Salwa Yuniar,F,2005,2H,Rusun Jati Rawasari - Senen,0,B06668P,Bengkel Jln. Letjen Suprapto,-6.174721,106.85362,3,4/3/2023 17:42,B03199P,RSPAD 1,-6.176162,106.83987,5,4/3/2023 18:35,0,Teenager,4/3/2023,Monday,17
PUFZ516T6T90KX,4719913296770918,dki,Umar Pradana,M,2003,JAK.08,Roxy - Benhil,0,B05924P,Yayasan Muhammadiyah 1,-6.197045,106.81442,22,4/3/2023 17:11,B04121P,Sbr. Pam Jaya DKI,-6.203461,106.80803,29,4/3/2023 18:18,0,Teenager,4/3/2023,Monday,17
